[
  {
    "name":"APT柏の森",
    "kana":"エーピーティーカヤノモリ",
    "zip":"820-0011",
    "address":"飯塚市柏の森110-63",
    "lat":33.6375991,
    "lng":130.7062515
  },
  {
    "name":"APT55ｓ",
    "kana":"エーピーティー55エス",
    "zip":"827-0003",
    "address":"田川郡川崎町大字川崎337-1",
    "lat":33.5997252,
    "lng":130.8333608
  },
  {
    "name":"ハインズMⅤ",
    "kana":"ハインズエムブイ",
    "zip":"825-0011",
    "address":"田川市栄町11-31",
    "lat":33.6384631,
    "lng":130.80884
  },
  {
    "name":"APTWEST",
    "kana":"エーピーティーウエスト",
    "zip":"825-0011",
    "address":"田川市栄町12-2",
    "lat":33.6376815,
    "lng":130.8082452
  },
  {
    "name":"Pod-1.Pod-2.Pod-3（伊田）",
    "kana":"ポッド1.ポッド2.ポッド3",
    "zip":"825-0002",
    "address":"田川市大字伊田1938-13 ,15 ,18",
    "lat":33.6792623,
    "lng":130.8424598
  },
  {
    "name":"pod-4.pod-5（川宮）",
    "kana":"ポッド4.ポッド5",
    "zip":"826-0042",
    "address":"田川市大字川宮1664-7 -1、-2",
    "lat":33.6470268,
    "lng":130.7991387
  },
  {
    "name":"Pod-6.～11（香春）",
    "kana":"ポッド6～11",
    "zip":"822-1406",
    "address":"田川郡香春町大字香春990-1",
    "lat":33.6792623,
    "lng":130.8424598
  },
  {
    "name":"飯塚SSビル",
    "kana":"イイヅカエスエスビル（テナント）",
    "zip":"820-0042",
    "address":"飯塚市本町13-8",
    "lat":33.6374393,
    "lng":130.6845139
  },
  {
    "name":"川崎棟割戸建",
    "kana":"カワサキムネワリコダテ",
    "zip":"827-0003",
    "address":"田川郡川崎町川崎1893番地",
    "lat":33.5912533,
    "lng":130.8147836
  },
  {
    "name":"グランアッシュ新飯塚",
    "kana":"グランアッシュシンイイヅカ",
    "zip":"820-0003",
    "address":"飯塚市立岩1310-1",
    "lat":33.648007,
    "lng":130.6949616
  },
  {
    "name":"Pod（椿）",
    "kana":"ポッドツバキ",
    "zip":"820-0084",
    "address":"飯塚市椿319-10",
    "lat":33.6171341,
    "lng":130.6603363
  },
  {
    "name":"OASIS横田",
    "kana":"オアシスヨコタ",
    "zip":"820-0044",
    "address":"飯塚市横田770-4",
    "lat":33.6490772,
    "lng":130.6680094
  },
  {
    "name":"コーポミュゼ",
    "kana":"コーポミュゼ",
    "zip":"825-0002",
    "address":"田川市大字伊田3535-1",
    "lat":33.6479794,
    "lng":130.817893
  },
  {
    "name":"河原コーポ",
    "kana":"カワハラコーポ",
    "zip":"824-0511",
    "address":"田川郡大任町今任原2279-2",
    "lat":33.6258959,
    "lng":130.8498192
  },
  {
    "name":"ＣＡＮＤＥＯ糒",
    "kana":"カンデオホシイ",
    "zip":"825-0005",
    "address":"田川市大字糒2303-34",
    "lat":33.6625758,
    "lng":130.7887899
  },
  {
    "name":"ＯＡＳＩＳ県立大前",
    "kana":"オアシスケンリツダイマエ",
    "zip":"825-0002",
    "address":"田川市大字伊田4441-1",
    "lat":33.649525,
    "lng":130.816755
  },
  {
    "name":"戸田テラスハウス",
    "kana":"トダテラスハウス",
    "zip":"822-1201",
    "address":"田川郡福智町金田665-3",
    "lat":33.6803399,
    "lng":130.7820219
  },
  {
    "name":"クレアール石川",
    "kana":"クレアールイシカワ",
    "zip":"826-0043",
    "address":"田川市大字奈良1590-1",
    "lat":33.6271857,
    "lng":130.8059516
  },
  {
    "name":"VIVIr石川 ",
    "kana":"ヴィヴィイシカワ",
    "zip":"826-0043",
    "address":"田川市大字奈良1587-24",
    "lat":33.6282814,
    "lng":130.8064047
  },
  {
    "name":"ソシア石川Ⅰ",
    "kana":"ソシアイシカワ",
    "zip":"826-0043",
    "address":"田川市大字奈良1587-406",
    "lat":33.6278158,
    "lng":130.8066454
  },
  {
    "name":"メゾン石川",
    "kana":"メゾンイシカワ",
    "zip":"826-0033",
    "address":"田川市丸山町16-7",
    "lat":33.6235034,
    "lng":130.8008537
  },
  {
    "name":"パトン石川",
    "kana":"パトンイシカワ",
    "zip":"826-0043",
    "address":"田川市奈良1587-95",
    "lat":33.6280256,
    "lng":130.8068229
  },
  {
    "name":"石川戸建（パトン横）2階建　※住所注意",
    "kana":"イシカワコダテパトンヨコ２カイダテ",
    "zip":"826-0043",
    "address":"田川市奈良1587-95",
    "lat":33.6280256,
    "lng":130.8068229
  },
  {
    "name":"石川戸建（ＶｉＶｉｒ前）2階建　※住所注意",
    "kana":"イシカワコダテヴィヴィマエ2カイダテ",
    "zip":"826-0043",
    "address":"田川市奈良1587-95",
    "lat":33.6280256,
    "lng":130.8068229
  },
  {
    "name":"石川戸建（ＶｉＶｉｒ前）平屋　　※住所注意",
    "kana":"イシカワコダテヴィヴィマエヒラヤ",
    "zip":"826-0043",
    "address":"田川市奈良1587-24",
    "lat":33.6282814,
    "lng":130.8064047
  },
  {
    "name":"石川戸建（2戸１）",
    "kana":"イシカワコダテ２コ1",
    "zip":"826-0043",
    "address":"田川市奈良1587-24",
    "lat":33.6282814,
    "lng":130.8064047
  },
  {
    "name":"コーポタツフジ",
    "kana":"コーポタツフジコベツ",
    "zip":"820-0083",
    "address":"飯塚市秋松197-1",
    "lat":33.6215842,
    "lng":130.6782678
  },
  {
    "name":"コーポ中野",
    "kana":"コーポナカノ",
    "zip":"825-0002",
    "address":"田川市大字伊田4005-1",
    "lat":33.6542997,
    "lng":130.814862
  },
  {
    "name":"たかはグリーンハイツ",
    "kana":"タカハグリーンハイツ",
    "zip":"825-0004",
    "address":"田川市大字夏吉741-5",
    "lat":33.6612418,
    "lng":130.812318
  },
  {
    "name":"ロイヤル田川",
    "kana":"ロイヤルタガワ",
    "zip":"826-0042",
    "address":"田川市大字川宮1776-10",
    "lat":33.6497959,
    "lng":130.7957429
  },
  {
    "name":"ピースフルハイツ",
    "kana":"ピースフルハイツ",
    "zip":"822-1325",
    "address":"田川郡糸田町南糸田1700",
    "lat":33.6527454,
    "lng":130.7790436
  },
  {
    "name":"サンライズ幸袋",
    "kana":"サンライズコウブクロ",
    "zip":"820-0065",
    "address":"飯塚市中443-9",
    "lat":33.6653627,
    "lng":130.6855637
  },
  {
    "name":"パステル80",
    "kana":"パステル80",
    "zip":"820-0044",
    "address":"飯塚市横田819-1",
    "lat":33.6490991,
    "lng":130.6705079
  },
  {
    "name":"サンヒルズ",
    "kana":"サンヒルズ",
    "zip":"822-1300",
    "address":"田川郡糸田町381-8",
    "lat":33.6527454,
    "lng":130.7790436
  },
  {
    "name":"ビレッジハウス田川Ⅰ・Ⅱ",
    "kana":"ビレッジハウスタガワワン・ツー",
    "zip":"825-0001",
    "address":"田川市伊加利1904-6",
    "lat":33.6349068,
    "lng":130.8243769
  },
  {
    "name":"ラルーチェ花瀬",
    "kana":"ラルーチェハナセ",
    "zip":"820-0045",
    "address":"飯塚市花瀬99-11",
    "lat":33.6425922,
    "lng":130.6623053
  },
  {
    "name":"ロイヤルヒルズⅡ",
    "kana":"ロイヤルヒルズツー",
    "zip":"820-0115",
    "address":"飯塚市仁保370",
    "lat":33.6506104,
    "lng":130.7288308
  },
  {
    "name":"リバーサイド桂川",
    "kana":"リバーサイドケイセン",
    "zip":"820-0607",
    "address":"嘉穂郡桂川町土師2335-1",
    "lat":33.5707233,
    "lng":130.6870844
  },
  {
    "name":"エスカーザ",
    "kana":"エスカーザ",
    "zip":"821-0012",
    "address":"嘉麻市上山田435-16",
    "lat":33.5640337,
    "lng":130.7645925
  },
  {
    "name":"レークサイドエクセル",
    "kana":"レークサイドエクセル",
    "zip":"820-0053",
    "address":"飯塚市伊岐須562-4",
    "lat":33.6476653,
    "lng":130.6552804
  },
  {
    "name":"ステージサクセス",
    "kana":"ステージサクセス",
    "zip":"820-0053",
    "address":"飯塚市伊岐須510-10",
    "lat":33.6473133,
    "lng":130.6571617
  },
  {
    "name":"エクセルステージ",
    "kana":"エクセルステージ",
    "zip":"820-0052",
    "address":"飯塚市相田118-1",
    "lat":33.6571509,
    "lng":130.6612338
  },
  {
    "name":"相田戸建(三喜）",
    "kana":"アイダコダテサンキ",
    "zip":"820-0052",
    "address":"飯塚市相田259-27",
    "lat":33.6577539,
    "lng":130.6611413
  },
  {
    "name":"ランティス",
    "kana":"ランティス",
    "zip":"820-0053",
    "address":"飯塚市伊岐須510-14",
    "lat":33.6473422,
    "lng":130.6573156
  },
  {
    "name":"カーサまるみⅠ Ⅱ",
    "kana":"カーサマルミワンツー",
    "zip":"825-0002",
    "address":"田川市大字伊田527",
    "lat":33.6446799,
    "lng":130.8401023
  },
  {
    "name":"まるみ６号棟（戸別）",
    "kana":"マルミ6ゴウトウコベツ",
    "zip":"825-0002",
    "address":"田川市大字伊田525-1",
    "lat":33.6447643,
    "lng":130.8403897
  },
  {
    "name":"まるみアパート（戸別）",
    "kana":"マルミアパートコベツ",
    "zip":"825-0002",
    "address":"田川市大字伊田503-8",
    "lat":33.6448115,
    "lng":130.8423202
  },
  {
    "name":"ヒルズパラーシオ",
    "kana":"ヒルズパラーシオ",
    "zip":"826-0043",
    "address":"田川市大字奈良1517-3",
    "lat":33.6219803,
    "lng":130.8041685
  },
  {
    "name":"グリーンガーデンⅠ",
    "kana":"グリーンガーデンワン",
    "zip":"807-1142",
    "address":"北九州市八幡西区楠橋東2丁目1-59",
    "lat":33.7921012,
    "lng":130.7310751
  },
  {
    "name":"プラムガーデンⅠ・Ⅱ",
    "kana":"プラムガーデンワン・ツー",
    "zip":"825-0011",
    "address":"田川市栄町10-54",
    "lat":33.6377933,
    "lng":130.807484
  },
  {
    "name":"ペルセンプレ（戸別）",
    "kana":"ペルセンプレコベツ",
    "zip":"825-0002",
    "address":"田川市大字伊田1529-7",
    "lat":33.6493479,
    "lng":130.8326797
  },
  {
    "name":"ポパイビル（住居）",
    "kana":"ポパイビルジュウキョ",
    "zip":"825-0012",
    "address":"田川市日の出町6-7",
    "lat":33.6442037,
    "lng":130.8120017
  },
  {
    "name":"ポパイビル（テナント）",
    "kana":"ポパイビルテナント",
    "zip":"825-0012",
    "address":"田川市日の出町6-7",
    "lat":33.6442037,
    "lng":130.8120017
  },
  {
    "name":"糸田町貸家",
    "kana":"イトダマチカシヤ",
    "zip":"822-1300",
    "address":"田川郡糸田町自由ヶ丘1861-49",
    "lat":33.6595735,
    "lng":130.7894195
  },
  {
    "name":"大藪貸家",
    "kana":"オオヤブカシヤ",
    "zip":"826-0042",
    "address":"田川市川宮1636-37",
    "lat":33.6431141,
    "lng":130.801525
  },
  {
    "name":"赤池貸家(118)",
    "kana":"アカイケカシヤ118",
    "zip":"822-1101",
    "address":"田川郡福智町赤池118",
    "lat":33.6942003,
    "lng":130.7639989
  },
  {
    "name":"アリエス立岩",
    "kana":"アリエスタテイワ",
    "zip":"820-0003",
    "address":"飯塚市立岩1203-3",
    "lat":33.6482944,
    "lng":130.695481
  },
  {
    "name":"グリーングラス弓削田",
    "kana":"グリーングラスユゲタ",
    "zip":"826-0041",
    "address":"田川市弓削田235-9",
    "lat":33.6311332,
    "lng":130.7876127
  },
  {
    "name":"メゾン・ド・プロスⅢ",
    "kana":"メゾンドプロススリー",
    "zip":"820-0052",
    "address":"飯塚市相田239-1",
    "lat":33.6595764,
    "lng":130.6617621
  },
  {
    "name":"Mハイツ近大前",
    "kana":"エムハイツキンダイマエ",
    "zip":"820-0112",
    "address":"飯塚市有井282-3",
    "lat":33.6479116,
    "lng":130.7233043
  },
  {
    "name":"HWT横田",
    "kana":"エイチダブルティーヨコタ",
    "zip":"820-0044",
    "address":"飯塚市横田863-1",
    "lat":33.6507902,
    "lng":130.6693259
  },
  {
    "name":"EST川宮",
    "kana":"エストカワミヤ",
    "zip":"826-0042",
    "address":"田川市大字川宮913-1",
    "lat":33.637839,
    "lng":130.7936654
  },
  {
    "name":"コーモド桜ケ丘A・B",
    "kana":"コーモドサクラガオカエー・ビー",
    "zip":"825-0005",
    "address":"田川市大字糒2303-4",
    "lat":33.6627678,
    "lng":130.7886283
  },
  {
    "name":"グリーンビュー立岩Ⅰ",
    "kana":"グリーンビュータテイワワン",
    "zip":"820-0003",
    "address":"飯塚市立岩1088-1",
    "lat":33.646469,
    "lng":130.6997147
  },
  {
    "name":"グリーンビュー立岩Ⅱ",
    "kana":"グリーンビュータテイワツー",
    "zip":"820-0003",
    "address":"飯塚市立岩1089-1",
    "lat":33.6468122,
    "lng":130.6994673
  },
  {
    "name":"グレイスマンション",
    "kana":"グレイスマンション",
    "zip":"825-0012",
    "address":"田川市日の出町7-14",
    "lat":33.6438468,
    "lng":130.8123047
  },
  {
    "name":"藤井ビル2",
    "kana":"フジイビル2",
    "zip":"826-0042",
    "address":"田川市大字川宮914-1",
    "lat":33.6380815,
    "lng":130.7934145
  },
  {
    "name":"藤井ビル2（テナント）",
    "kana":"フジイビル2テナント",
    "zip":"826-0042",
    "address":"田川市大字川宮914-1",
    "lat":33.6380815,
    "lng":130.7934145
  },
  {
    "name":"常盤薬品ビル",
    "kana":"トキワヤクヒンビル",
    "zip":"826-0042",
    "address":"田川市川宮908-1",
    "lat":33.638883,
    "lng":130.7935529
  },
  {
    "name":"常盤薬品ビル（テナント）",
    "kana":"トキワヤクヒンビルテナント",
    "zip":"826-0042",
    "address":"田川市川宮908-1",
    "lat":33.638883,
    "lng":130.7935529
  },
  {
    "name":"中津原貸家(矢都工業様)",
    "kana":"ナカツバラカシヤヤツコウギョウサマ",
    "zip":"822-1405",
    "address":"田川郡香春町大字中津原2073-22",
    "lat":33.6493433,
    "lng":130.8375488
  },
  {
    "name":"金田貸家",
    "kana":"カナダカシヤ",
    "zip":"822-1201",
    "address":"田川郡福智町金田1147-6",
    "lat":33.6835709,
    "lng":130.7762852
  },
  {
    "name":"奈良貸家",
    "kana":"ナラカシヤ",
    "zip":"826-0043",
    "address":"田川市大字奈良1587-258",
    "lat":33.6275335,
    "lng":130.8057518
  },
  {
    "name":"位登貸家",
    "kana":"イトカシヤ",
    "zip":"826-0044",
    "address":"田川市位登768-2",
    "lat":33.6092643,
    "lng":130.791098
  },
  {
    "name":"SKY 01 02",
    "kana":"スカイ0102",
    "zip":"826-0042",
    "address":"田川市川宮1759-4",
    "lat":33.6447857,
    "lng":130.7943836
  },
  {
    "name":"SKY03 04 05",
    "kana":"スカイ030405",
    "zip":"825-0002",
    "address":"田川市大字伊田403",
    "lat":33.6412176,
    "lng":130.8388832
  },
  {
    "name":"飯田貸家",
    "kana":"イイダカシヤ",
    "zip":"820-0501",
    "address":"嘉麻市飯田123-3",
    "lat":33.5715188,
    "lng":130.7036036
  },
  {
    "name":"糒貸家",
    "kana":"ホシイカシヤ",
    "zip":"825-0005",
    "address":"田川市大字糒2108-1",
    "lat":33.6633384,
    "lng":130.7986596
  },
  {
    "name":"伊田町ビル（テナント)　古賀ビル",
    "kana":"イタマチビルテナントコガビル",
    "zip":"825-0015",
    "address":"田川市伊田町2958-42　（住居表示15-1）",
    "lat":33.6435557,
    "lng":130.8143148
  },
  {
    "name":"松原テナント（テナント）旧ひとしずく",
    "kana":"マツバラテナント",
    "zip":"825-0002",
    "address":"田川市大字伊田500-36",
    "lat":33.6487174,
    "lng":130.8268017
  },
  {
    "name":"採銅所貸家",
    "kana":"サイドウショカシヤ",
    "zip":"822-1401",
    "address":"田川郡香春町大字採銅所5343-1",
    "lat":33.6949823,
    "lng":130.8567938
  },
  {
    "name":"松井戸建 長畑貸家",
    "kana":"マツイコダテナガハタカシヤ",
    "zip":"822-1406",
    "address":"田川郡香春町大字香春1720-5",
    "lat":33.669713,
    "lng":130.8290017
  },
  {
    "name":"松井戸建 長畑長屋",
    "kana":"マツイコダテナガハタナガヤ",
    "zip":"822-1406",
    "address":"田川郡香春町大字香春1559-11",
    "lat":33.6679215,
    "lng":130.8307311
  },
  {
    "name":"ホワイトタウニー",
    "kana":"ホワイトタウニー",
    "zip":"822-0041",
    "address":"田川市大字弓削田1736-1",
    "lat":33.6311664,
    "lng":130.781831
  },
  {
    "name":"夏吉貸家（2号のみ集金）",
    "kana":"ナツヨシカシヤ",
    "zip":"825-0004",
    "address":"田川市大字夏吉1362-1",
    "lat":33.6612223,
    "lng":130.8263006
  },
  {
    "name":"夏吉平屋",
    "kana":"ナツヨシヒラヤ",
    "zip":"825-0004",
    "address":"田川市夏吉658-1",
    "lat":33.6622221,
    "lng":130.8161355
  },
  {
    "name":"鏡山貸家",
    "kana":"カガミヤマカシヤ",
    "zip":"822-1402",
    "address":"田川郡香春町大字鏡山字石鍋976-1",
    "lat":33.6671522,
    "lng":130.872803
  },
  {
    "name":"相田戸建",
    "kana":"アイダコダテ",
    "zip":"820-0052",
    "address":"飯塚市相田75-24",
    "lat":33.6577139,
    "lng":130.6639218
  },
  {
    "name":"伊岐須戸建て",
    "kana":"イギスコダテ",
    "zip":"820-0053",
    "address":"飯塚市伊岐須99-5",
    "lat":33.6533935,
    "lng":130.6640198
  },
  {
    "name":"方城貸家",
    "kana":"ホウジョウカシヤ",
    "zip":"822-1201",
    "address":"田川郡福智町伊方1914-2",
    "lat":33.6918799,
    "lng":130.8058648
  },
  {
    "name":"船尾貸家",
    "kana":"フナオカシヤ",
    "zip":"822-0041",
    "address":"田川市大字弓削田2971",
    "lat":33.6336546,
    "lng":130.769717
  },
  {
    "name":"弓削田貸家",
    "kana":"ユゲタカシヤ",
    "zip":"826-0041",
    "address":"田川市弓削田2838-15",
    "lat":33.6333755,
    "lng":130.7753454
  },
  {
    "name":"弓削田貸家Ⅱ",
    "kana":"ユゲタカシヤツー",
    "zip":"826-0041",
    "address":"田川市弓削田1491-8",
    "lat":33.6320711,
    "lng":130.7785481
  },
  {
    "name":"香春町店舗",
    "kana":"カワラマチテンポ",
    "zip":"822-1401",
    "address":"田川郡香春町採銅所5343-1",
    "lat":33.6949823,
    "lng":130.8567938
  },
  {
    "name":"マミービル（テナント）",
    "kana":"マミービルテナント",
    "zip":"825-0015",
    "address":"田川市伊田町2980-20",
    "lat":33.6439689,
    "lng":130.8141
  },
  {
    "name":"糸田町貸家（松井様）",
    "kana":"イトダマチカシヤマツイサマ",
    "zip":"822-1300",
    "address":"田川郡糸田町原3574-2",
    "lat":33.6516007,
    "lng":130.7826002
  },
  {
    "name":"伊方貸家（松井様）",
    "kana":"イカタカシヤマツイサマ",
    "zip":"822-1201",
    "address":"田川郡福智町伊方2769",
    "lat":33.6736585,
    "lng":130.8042907
  },
  {
    "name":"高源山アパート",
    "kana":"コウゲンザンアパート",
    "zip":"822-1405",
    "address":"田川郡香春町大字中津原2805－21",
    "lat":33.6457637,
    "lng":130.8405883
  },
  {
    "name":"クイーンハイツKⅢ",
    "kana":"クイーンハイツケースリー",
    "zip":"822-1405",
    "address":"田川郡香春町大字中津原2878-17",
    "lat":33.6524224,
    "lng":130.829982
  },
  {
    "name":"クイーンハイツ春日町",
    "kana":"クイーンハイツカスガマチ",
    "zip":"826-0026",
    "address":"田川市春日町5-12",
    "lat":33.6292401,
    "lng":130.7964403
  },
  {
    "name":"MAビル",
    "kana":"エムエービル",
    "zip":"827-0002",
    "address":"田川郡川崎町池尻字石ヶ崎459-1",
    "lat":33.6174253,
    "lng":130.8045082
  },
  {
    "name":"MAビル（テナント）",
    "kana":"エムエービルテナント",
    "zip":"827-0002",
    "address":"田川郡川崎町池尻字石ヶ崎459-1",
    "lat":33.6174253,
    "lng":130.8045082
  },
  {
    "name":"池尻テナント（459-1）",
    "kana":"イケジリテナント459-1",
    "zip":"827-0002",
    "address":"田川郡川崎町池尻字石ヶ崎459-1",
    "lat":33.6174253,
    "lng":130.8045082
  },
  {
    "name":"池尻テナント（481-2）",
    "kana":"イケジリテナント481-2",
    "zip":"827-0002",
    "address":"田川郡川崎町池尻字石ヶ崎481-2",
    "lat":33.6174253,
    "lng":130.8045082
  },
  {
    "name":"シャーメゾンＭＡ",
    "kana":"シャーメゾンエムエー",
    "zip":"820-0074",
    "address":"飯塚市楽市494-9",
    "lat":33.6092547,
    "lng":130.6778553
  },
  {
    "name":"クイーンハイツKⅤ",
    "kana":"クイーンハイツケーファイブ",
    "zip":"822-1405",
    "address":"田川郡香春町大字中津原2878-4",
    "lat":33.6524224,
    "lng":130.829982
  },
  {
    "name":"大浦オークマンション",
    "kana":"オオウラオークマンション",
    "zip":"826-0043",
    "address":"田川市大字奈良1553-24",
    "lat":33.6219042,
    "lng":130.8117564
  },
  {
    "name":"ライフステージ太郎丸",
    "kana":"ライフステージタロウマル",
    "zip":"820-0076",
    "address":"飯塚市太郎丸681",
    "lat":33.6083648,
    "lng":130.6733446
  },
  {
    "name":"Sect.1",
    "kana":"セクトワン",
    "zip":"825-0005",
    "address":"田川市大字糒2275番地1",
    "lat":33.6610824,
    "lng":130.7946011
  },
  {
    "name":"コーポラスメイト立岩",
    "kana":"コーポラスメイトタテイワ",
    "zip":"820-0003",
    "address":"飯塚市立岩1074-18",
    "lat":33.6466004,
    "lng":130.7032076
  },
  {
    "name":"サンライフ小倉Ⅱ（区分）",
    "kana":"サンライフコクラツー",
    "zip":"802-0085",
    "address":"北九州市小倉北区吉野町2番4号805号",
    "lat":33.8748623,
    "lng":130.8763133
  },
  {
    "name":"神崎貸家(中村様)",
    "kana":"コウザキカシヤナカムラサマ",
    "zip":"822-1202",
    "address":"田川郡福智町神崎1056-45",
    "lat":33.6766551,
    "lng":130.7632222
  },
  {
    "name":"神崎貸家２（中村様）",
    "kana":"コウザキカシヤナカムラサマ2ナカムラサマ",
    "zip":"822-1202",
    "address":"田川郡福智町神崎1618-26",
    "lat":33.6832321,
    "lng":130.7656197
  },
  {
    "name":"コネクションハウスⅠ、Ⅱ",
    "kana":"コネクションハウスワン、ツー",
    "zip":"820-0052",
    "address":"飯塚市相田254-9、256-3",
    "lat":33.6587148,
    "lng":130.6609704
  },
  {
    "name":"サンライズITA",
    "kana":"サンライズイタ",
    "zip":"825-0012",
    "address":"田川市日の出町3-8",
    "lat":33.6441945,
    "lng":130.8114569
  },
  {
    "name":"梅ノ杜ｸﾞﾗﾝﾄﾞﾋﾙｽﾞｸﾛｰｽA･B･C",
    "kana":"ウメノモリグランドヒルズクラースエー・ビー・シー",
    "zip":"822-1402",
    "address":"田川郡香春町鏡山292-1",
    "lat":33.6671522,
    "lng":130.872803
  },
  {
    "name":"梅ノ杜Avenir.MELL",
    "kana":"ウメノモリアヴェニールメル",
    "zip":"822-1402",
    "address":"田川郡香春町鏡山1711-1",
    "lat":33.6792505,
    "lng":130.8644192
  },
  {
    "name":"永田貸家Ｂ～Ｅ",
    "kana":"ナガタカシヤビー～イー",
    "zip":"822-1402",
    "address":"田川郡香春町鏡山1710-1以下枝番Bは2",
    "lat":33.6792334,
    "lng":130.8641955
  },
  {
    "name":"g.u.court 秋松（旧ｺｰﾎﾟみつわ）",
    "kana":"ギーユーコートアキマツ",
    "zip":"820-0083",
    "address":"飯塚市秋松367-5-1",
    "lat":33.6189885,
    "lng":130.6771679
  },
  {
    "name":"みそぎコーポ",
    "kana":"ミソギコーポ",
    "zip":"825-0004",
    "address":"田川市夏吉1209",
    "lat":33.6567357,
    "lng":130.8207634
  },
  {
    "name":"第二コーポ（旧ｺｰﾎﾟみつわⅡ）",
    "kana":"ダイニコーポ",
    "zip":"820-0083",
    "address":"飯塚市秋松366-2",
    "lat":33.6188315,
    "lng":130.6773198
  },
  {
    "name":"みつわ鋼機寮",
    "kana":"ミツワコウキリョウ",
    "zip":"820-0021",
    "address":"飯塚市潤野46-3",
    "lat":33.6314637,
    "lng":130.6619358
  },
  {
    "name":"山元戸建",
    "kana":"ヤマモトコダテ",
    "zip":"820-0205",
    "address":"嘉麻市岩崎1167－1",
    "lat":33.5998903,
    "lng":130.7189456
  },
  {
    "name":"ルキア",
    "kana":"ルキア",
    "zip":"825-0002",
    "address":"田川市大字伊田4867-10",
    "lat":33.6501223,
    "lng":130.8041999
  },
  {
    "name":"弓削田テナント（テナント）",
    "kana":"ユゲタテナント",
    "zip":"826-0041",
    "address":"田川市弓削田233-21",
    "lat":33.63047,
    "lng":130.7874295
  },
  {
    "name":"伊方貸家",
    "kana":"イカタカシヤ",
    "zip":"822-1201",
    "address":"田川郡福智町伊方4500-44",
    "lat":33.6840312,
    "lng":130.7949741
  },
  {
    "name":"立川アパート",
    "kana":"タチカワアパート",
    "zip":"820-0001",
    "address":"飯塚市鯰田1941-3",
    "lat":33.6665561,
    "lng":130.6980906
  },
  {
    "name":"立川貸家",
    "kana":"タチカワカシヤ",
    "zip":"820-0001",
    "address":"飯塚市鯰田1941",
    "lat":33.6665561,
    "lng":130.6980906
  },
  {
    "name":"平戸建",
    "kana":"ヒラコダテ",
    "zip":"820-0203",
    "address":"嘉麻市平1443-61",
    "lat":33.6005652,
    "lng":130.7357851
  },
  {
    "name":"平戸建Ⅱ",
    "kana":"ヒラコダテツー",
    "zip":"820-0203",
    "address":"嘉麻市平1414-23",
    "lat":33.6000453,
    "lng":130.7348652
  },
  {
    "name":"平戸建Ⅲ",
    "kana":"ヒラコダテスリー",
    "zip":"820-0203",
    "address":"嘉麻市平1414-103",
    "lat":33.6015751,
    "lng":130.7354182
  },
  {
    "name":"平戸建Ⅳ",
    "kana":"ヒラコダテフォー",
    "zip":"820-0203",
    "address":"嘉麻市平1414-16",
    "lat":33.600207,
    "lng":130.7346653
  },
  {
    "name":"平戸建Ⅴ",
    "kana":"ヒラコダテファイブ",
    "zip":"820-0203",
    "address":"嘉麻市平1414-18",
    "lat":33.6015751,
    "lng":130.7354182
  },
  {
    "name":"平戸建Ⅵ",
    "kana":"ヒラコダテシックス",
    "zip":"820-0203",
    "address":"嘉麻市平1414-16",
    "lat":33.600207,
    "lng":130.7346653
  },
  {
    "name":"平戸建Ⅶ",
    "kana":"ヒラコダテセブン",
    "zip":"820-0203",
    "address":"嘉麻市平1443-58",
    "lat":33.600557,
    "lng":130.7355165
  },
  {
    "name":"平戸建Ⅷ",
    "kana":"ヒラコダテエイト",
    "zip":"820-0203",
    "address":"嘉麻市平1373-40",
    "lat":33.598775,
    "lng":130.7337919
  },
  {
    "name":"コーポ大和 （やまと）",
    "kana":"コーポヤマト",
    "zip":"820-0001",
    "address":"飯塚市鯰田2425-15",
    "lat":33.654435,
    "lng":130.6979321
  },
  {
    "name":"藤井貸家",
    "kana":"フジイカシヤ",
    "zip":"820-0001",
    "address":"飯塚市鯰田2425-23",
    "lat":33.6540423,
    "lng":130.6975656
  },
  {
    "name":"栗崎山ハイツ（戸別）",
    "kana":"クリサキヤマハイツ",
    "zip":"820-0012",
    "address":"飯塚市下三緒44-10",
    "lat":33.6334926,
    "lng":130.7067713
  },
  {
    "name":"ラ・ヴィータローザ",
    "kana":"ラヴィータローザ",
    "zip":"825-0002",
    "address":"田川市伊田3698-1",
    "lat":33.6462067,
    "lng":130.8207005
  },
  {
    "name":"プリエールヒルＡ・Ｂ",
    "kana":"プリエールヒルエー・ビー",
    "zip":"825-0002",
    "address":"田川市伊田558-3(A)、551-1(B)",
    "lat":33.6440297,
    "lng":130.8382597
  },
  {
    "name":"サンライズフラット",
    "kana":"サンライズフラット",
    "zip":"825-0002",
    "address":"田川市伊田422-1",
    "lat":33.6417499,
    "lng":130.8370453
  },
  {
    "name":"クレアールライフ金田A・B",
    "kana":"クレアールライフカナダエー・ビー",
    "zip":"822-1201",
    "address":"田川郡福智町金田448-2",
    "lat":33.676218,
    "lng":130.7870922
  },
  {
    "name":"方城アパート",
    "kana":"ホウジョウアパート",
    "zip":"822-1201",
    "address":"田川郡福智町伊方4272-2",
    "lat":33.6918825,
    "lng":130.7990169
  },
  {
    "name":"ヴィヴァンライフ",
    "kana":"ヴィヴァンライフ",
    "zip":"822-1300",
    "address":"田川郡糸田町字皆添3721-10",
    "lat":33.6527454,
    "lng":130.7790436
  },
  {
    "name":"リバティライフ",
    "kana":"リバティライフ",
    "zip":"827-0004",
    "address":"田川郡川崎町田原581-1",
    "lat":33.6016903,
    "lng":130.8166004
  },
  {
    "name":"クレアールライフ文字山",
    "kana":"クレアールライフモンジュヤマ",
    "zip":"826-0041",
    "address":"田川市弓削田1584-1",
    "lat":33.6299307,
    "lng":130.7771557
  },
  {
    "name":"エムズコーポ",
    "kana":"エムズコーポ",
    "zip":"827-0004",
    "address":"田川郡川崎町田原1947-5",
    "lat":33.609926,
    "lng":130.7997303
  },
  {
    "name":"アートヒルズ赤松台",
    "kana":"アートヒルズアカマツダイ",
    "zip":"825-0004",
    "address":"田川市夏吉1258-145",
    "lat":33.6573464,
    "lng":130.8231538
  },
  {
    "name":"ララ・フラット",
    "kana":"ララフラット",
    "zip":"827-0004",
    "address":"田川郡川崎町田原1641-1",
    "lat":33.6083565,
    "lng":130.8023729
  },
  {
    "name":"サンフラワー",
    "kana":"サンフラワー",
    "zip":"827-0003",
    "address":"田川郡川崎町大字川崎2768-6",
    "lat":33.5837513,
    "lng":130.8145035
  },
  {
    "name":"グラシューヒル",
    "kana":"グラシューヒル",
    "zip":"824-0511",
    "address":"田川郡大任町今任原3519-42",
    "lat":33.6425884,
    "lng":130.8471781
  },
  {
    "name":"ラ・リベルタ",
    "kana":"ラリベルタ",
    "zip":"825-0002",
    "address":"田川市大字伊田1708-11",
    "lat":33.6454418,
    "lng":130.8244665
  },
  {
    "name":"ニコプレイス",
    "kana":"ニコプレス",
    "zip":"826-0042",
    "address":"田川市大字川宮1419-3",
    "lat":33.6437902,
    "lng":130.7955083
  },
  {
    "name":"サニーコート",
    "kana":"サニーコート",
    "zip":"827-0003",
    "address":"田川郡川崎町大字川崎328-4",
    "lat":33.600928,
    "lng":130.830665
  },
  {
    "name":"Ｊｕｌｉｅｔｔｅ ｈｉｌｌ",
    "kana":"ジュリエットヒル",
    "zip":"822-1201",
    "address":"田川郡福智町伊方4410-1",
    "lat":33.6928542,
    "lng":130.7981108
  },
  {
    "name":"ドルチェード",
    "kana":"ドルチェード",
    "zip":"820-0077",
    "address":"飯塚市椋本169-1",
    "lat":33.6050038,
    "lng":130.6551149
  },
  {
    "name":"ラフォーレハイム （部分管理）",
    "kana":"ラフォーレハイム",
    "zip":"820-0021",
    "address":"飯塚市潤野1296-111",
    "lat":33.6391613,
    "lng":130.6579425
  },
  {
    "name":"カルデアコートＡ・Ｂ",
    "kana":"カルデアコートエー・ビー",
    "zip":"820-0113",
    "address":"飯塚市庄内元吉198-1",
    "lat":33.6603604,
    "lng":130.7289456
  },
  {
    "name":"ローレンコート",
    "kana":"ローレンコート",
    "zip":"820-0207",
    "address":"嘉麻市口春236-1",
    "lat":33.6120156,
    "lng":130.7145571
  },
  {
    "name":"フリーチェレガロA・B",
    "kana":"フリーチェレガロエー・ビー",
    "zip":"826-0042",
    "address":"田川市大字川宮546-1（Ａ）、552-1（Ｂ）",
    "lat":33.6459784,
    "lng":130.784899
  },
  {
    "name":"ルーイヒヴィラＡ・Ｂ・Ｃ",
    "kana":"ルーイヒヴラエー・ビー・シー",
    "zip":"824-0512",
    "address":"田川郡大任町大字大行事1734-1",
    "lat":33.5975922,
    "lng":130.8585038
  },
  {
    "name":"ルーイヒヴィラⅡＡ・Ｂ・Ｃ",
    "kana":"ルーイヒヴラエー・ビー・シーツーエー・ビー・シー",
    "zip":"824-0512",
    "address":"田川郡大任町大字大行事1734-9（A）1736-4（B）1734-10（C）",
    "lat":33.5974292,
    "lng":130.8584442
  },
  {
    "name":"クレアールライフ宮若Ａ・Ｂ",
    "kana":"クレアールライフミヤワカエー・ビー",
    "zip":"823-0004",
    "address":"宮若市磯光1317-40",
    "lat":33.7119309,
    "lng":130.6863295
  },
  {
    "name":"クレアールライフ桂川",
    "kana":"クレアールライフケイセン",
    "zip":"820-0607",
    "address":"嘉穂郡桂川町大字土師28-12",
    "lat":33.5803482,
    "lng":130.6987921
  },
  {
    "name":"クレールソフィア",
    "kana":"クレールソフィア",
    "zip":"824-0601",
    "address":"田川郡添田町大字庄2231-1",
    "lat":33.5831254,
    "lng":130.8402951
  },
  {
    "name":"ジュラーレコート",
    "kana":"ジュラーレコート",
    "zip":"822-0041",
    "address":"田川市大字弓削田1279",
    "lat":33.6353533,
    "lng":130.7829466
  },
  {
    "name":"グランドーレＡ・Ｂ・Ｃ",
    "kana":"グランドーレエー・ビー・シー",
    "zip":"826-0002",
    "address":"田川郡川崎町大字池尻252-1",
    "lat":33.618319,
    "lng":130.7962623
  },
  {
    "name":"クレアールライフ奈良Ａ・Ｂ",
    "kana":"クレアールライフナラエー・ビー",
    "zip":"822-0041",
    "address":"田川市大字弓削田126-2",
    "lat":33.6256696,
    "lng":130.7890923
  },
  {
    "name":"フォルトゥーナ",
    "kana":"フォルトゥーナ",
    "zip":"826-0042",
    "address":"田川市大字川宮45-3",
    "lat":33.6456268,
    "lng":130.7797253
  },
  {
    "name":"リバブルハウス",
    "kana":"リバブルハウス",
    "zip":"825-0004",
    "address":"田川市大字夏吉662-7",
    "lat":33.6599374,
    "lng":130.8211401
  },
  {
    "name":"新町倉庫(テナント)",
    "kana":"シンマチソウコテナント",
    "zip":"825-0016",
    "address":"田川市新町3070-4",
    "lat":33.642915,
    "lng":130.8064064
  },
  {
    "name":"NEW LIFE STORK 17 A棟",
    "kana":"ニューライフストーク17エー棟",
    "zip":"822-1405",
    "address":"田川郡香春町中津原536-7",
    "lat":33.6536436,
    "lng":130.844625
  },
  {
    "name":"NEW LIFE STORK 17 B棟",
    "kana":"ニューライフストーク17ビー棟",
    "zip":"822-1405",
    "address":"田川郡香春町中津原535-2",
    "lat":33.6536436,
    "lng":130.844625
  },
  {
    "name":"NEW LIFE STORK 17 C棟",
    "kana":"ニューライフストーク17シー棟",
    "zip":"822-1405",
    "address":"田川郡香春町中津原535-3",
    "lat":33.6536436,
    "lng":130.844625
  },
  {
    "name":"NEW LIFE STORK 17 D棟",
    "kana":"ニューライフストーク17ディー棟",
    "zip":"822-1405",
    "address":"田川郡香春町中津原535-4",
    "lat":33.6536436,
    "lng":130.844625
  },
  {
    "name":"NEW LIFE STORK 17 E棟",
    "kana":"ニューライフストーク17イー棟",
    "zip":"822-1405",
    "address":"田川郡香春町中津原535-5",
    "lat":33.6536436,
    "lng":130.844625
  },
  {
    "name":"Joy Plus(テナント)",
    "kana":"ジョウポリス",
    "zip":"826-0042",
    "address":"田川市大字川宮531-4 他",
    "lat":33.6447957,
    "lng":130.785978
  },
  {
    "name":"メゾン・ド・ノーブル",
    "kana":"メゾンドノーブル",
    "zip":"820-1114",
    "address":"飯塚市口原326-13",
    "lat":33.6848547,
    "lng":130.7207611
  },
  {
    "name":"シェールメゾン",
    "kana":"シェールメゾン",
    "zip":"820-1114",
    "address":"飯塚市口原326-8",
    "lat":33.6847916,
    "lng":130.7211443
  },
  {
    "name":"横山戸建（1246-2）",
    "kana":"ヨコヤマコダテ",
    "zip":"822-0002",
    "address":"直方市大字頓野1246番地2",
    "lat":33.7597386,
    "lng":130.7542579
  },
  {
    "name":"古町テナント",
    "kana":"フルマチテナント",
    "zip":"822-0027",
    "address":"直方市古町4-26",
    "lat":33.7491206,
    "lng":130.7276966
  },
  {
    "name":"エミールハイツⅠ",
    "kana":"エミールハイツワン",
    "zip":"820-0001",
    "address":"飯塚市鯰田1405-1",
    "lat":33.6667618,
    "lng":130.7045854
  },
  {
    "name":"ＣＩＴＹ飯塚東",
    "kana":"シティーイイヅカヒガシ",
    "zip":"820-0012",
    "address":"飯塚市下三緒372-1",
    "lat":33.6349372,
    "lng":130.7030766
  },
  {
    "name":"石川ハイツⅠ",
    "kana":"イシカワハイツワン",
    "zip":"826-0043",
    "address":"田川市大字奈良1587-95",
    "lat":33.6280256,
    "lng":130.8068229
  },
  {
    "name":"石川ハイツⅡ",
    "kana":"イシカワハイツワンツー",
    "zip":"826-0043",
    "address":"田川市大字奈良1587-95-2",
    "lat":33.6278158,
    "lng":130.8066454
  },
  {
    "name":"エレガンス",
    "kana":"エレガンス",
    "zip":"820-0201",
    "address":"嘉麻市漆生899-2",
    "lat":33.5844635,
    "lng":130.723407
  },
  {
    "name":"シャトレー",
    "kana":"シャトレー",
    "zip":"820-0051",
    "address":"飯塚市庄司349-13",
    "lat":33.6759501,
    "lng":130.6711999
  },
  {
    "name":"ディアドリームⅠ",
    "kana":"ディアドリームワン",
    "zip":"820-0046",
    "address":"飯塚市大日寺1464-97",
    "lat":33.6427811,
    "lng":130.6344442
  },
  {
    "name":"ディアドリームⅡ",
    "kana":"ディアドリームツー",
    "zip":"820-0046",
    "address":"飯塚市大日寺1464-97",
    "lat":33.6427811,
    "lng":130.6344442
  },
  {
    "name":"ラフィネ板付",
    "kana":"ラフィネイタヅケ",
    "zip":"812-0888",
    "address":"福岡市博多区板付5-17-7",
    "lat":33.5646696,
    "lng":130.4561686
  },
  {
    "name":"板付工場（テナント）",
    "kana":"イタヅケコウジョウテナント",
    "zip":"812-0888",
    "address":"福岡市博多区板付1-11-24",
    "lat":33.572124,
    "lng":130.4487487
  },
  {
    "name":"板付倉庫（テナント）",
    "kana":"イタヅケコウジョウテナント",
    "zip":"812-0888",
    "address":"福岡市博多区板付1-11-24",
    "lat":33.572124,
    "lng":130.4487487
  },
  {
    "name":"グリーンハイツ",
    "kana":"グリーンハイツ",
    "zip":"825-0002",
    "address":"田川市大字伊田1629-2",
    "lat":33.6511773,
    "lng":130.827974
  },
  {
    "name":"OCEAN VEGAS α棟",
    "kana":"オーシャンベガスアルファトウ",
    "zip":"825-0002",
    "address":"田川市大字伊田3428",
    "lat":33.6496861,
    "lng":130.8119622
  },
  {
    "name":"OCEAN VEGAS α棟（ﾃﾅﾝﾄ）",
    "kana":"オーシャンベガスアルファトウテナント",
    "zip":"825-0002",
    "address":"田川市大字伊田3428",
    "lat":33.6496861,
    "lng":130.8119622
  },
  {
    "name":"OCEAN VEGAS β棟",
    "kana":"オーシャンベガスベータトウ",
    "zip":"825-0002",
    "address":"田川市大字伊田3428",
    "lat":33.6496861,
    "lng":130.8119622
  },
  {
    "name":"OCEAN VEGAS β棟(ﾃﾅﾝﾄ)",
    "kana":"オーシャンベガスベータトウテナント",
    "zip":"825-0002",
    "address":"田川市大字伊田3428",
    "lat":33.6496861,
    "lng":130.8119622
  },
  {
    "name":"OCEAN VEGAS γ棟",
    "kana":"オーシャンベガスガンマトウ",
    "zip":"825-0002",
    "address":"田川市大字伊田3428",
    "lat":33.6496861,
    "lng":130.8119622
  },
  {
    "name":"OCEAN LUCK α棟",
    "kana":"オーシャンラックアルファトウ",
    "zip":"825-0002",
    "address":"田川市大字伊田4549-1",
    "lat":33.6482194,
    "lng":130.8155841
  },
  {
    "name":"OCEAN LUCK β棟",
    "kana":"オーシャンラックベータトウ",
    "zip":"825-0002",
    "address":"田川市大字伊田4549-1",
    "lat":33.6482194,
    "lng":130.8155841
  },
  {
    "name":"OCEAN LUCK γ棟",
    "kana":"オーシャンラックガンマトウ",
    "zip":"825-0002",
    "address":"田川市大字伊田4549-1",
    "lat":33.6482194,
    "lng":130.8155841
  },
  {
    "name":"OCEAN LUCK γ棟(ﾃﾅﾝﾄ)",
    "kana":"オーシャンラックガンマトウテナント",
    "zip":"825-0002",
    "address":"田川市大字伊田4549-1",
    "lat":33.6482194,
    "lng":130.8155841
  },
  {
    "name":"シャロム後藤寺",
    "kana":"シャロムゴトウジ",
    "zip":"826-0023",
    "address":"田川市上本町4-4",
    "lat":33.6276543,
    "lng":130.8011613
  },
  {
    "name":"アルテージュ新飯塚北",
    "kana":"アルテージュシンイイヅカ",
    "zip":"820-0003",
    "address":"飯塚市立岩1344-1",
    "lat":33.6475919,
    "lng":130.6944943
  },
  {
    "name":"金田貸家（矢野いずみ様）",
    "kana":"カナダカシヤヤノイズミサマ",
    "zip":"822-1201",
    "address":"田川郡福智町金田673-5",
    "lat":33.6793925,
    "lng":130.7827884
  },
  {
    "name":"中津原貸家（矢野いずみ様）",
    "kana":"ナカツバラカシヤヤノイズミサマ",
    "zip":"822-1405",
    "address":"田川郡香春町中津原1592-6",
    "lat":33.6523979,
    "lng":130.843805
  },
  {
    "name":"大内田ビルNo.3",
    "kana":"オオウチダビルナンバー3",
    "zip":"820-0702",
    "address":"飯塚市平塚427-1",
    "lat":33.5750236,
    "lng":130.6608168
  },
  {
    "name":"大内田ビルNo.2",
    "kana":"オオウチダビルナンバー2",
    "zip":"820-0044",
    "address":"飯塚市横田72-2",
    "lat":33.6465534,
    "lng":130.6740229
  },
  {
    "name":"エミールハイツⅡ",
    "kana":"エミールハイツワンツー",
    "zip":"820-0001",
    "address":"飯塚市鯰田1147－1",
    "lat":33.669993,
    "lng":130.7073397
  },
  {
    "name":"レジアス三ヶ森",
    "kana":"レジアスサンガモリ",
    "zip":"807-0843",
    "address":"北九州市八幡西区三ヶ森1-5-12",
    "lat":33.8355573,
    "lng":130.7361828
  },
  {
    "name":"メゾンド三ヶ森",
    "kana":"メゾンドサンガモリ",
    "zip":"807-0845",
    "address":"北九州市八幡西区永犬丸南町1丁目4-2",
    "lat":33.8348399,
    "lng":130.7339581
  },
  {
    "name":"グラントミナミ",
    "kana":"グラントミナミ",
    "zip":"807-0845",
    "address":"北九州市八幡西区永犬丸南町1-2-10",
    "lat":33.8340395,
    "lng":130.7341715
  },
  {
    "name":"Lindy Tonno",
    "kana":"リンディトンノ",
    "zip":"822-0002",
    "address":"直方市頓野1368-1",
    "lat":33.7565834,
    "lng":130.7534674
  },
  {
    "name":"伊田テナント(ﾃﾅﾝﾄ)",
    "kana":"イタテナントテナント",
    "zip":"825-0002",
    "address":"田川市伊田2979-33",
    "lat":33.6487174,
    "lng":130.8268017
  },
  {
    "name":"シャトル東町",
    "kana":"シャトルヒガシマチ",
    "zip":"825-0004",
    "address":"田川市夏吉262-14",
    "lat":33.6516683,
    "lng":130.8215302
  },
  {
    "name":"本城1丁目倉庫付事務所(ﾃﾅﾝﾄ）",
    "kana":"ホンジョウ1チョウメソウコツキジムショテナント",
    "zip":"807-0801",
    "address":"北九州市八幡西区本城1-20-24",
    "lat":33.8818101,
    "lng":130.7288664
  },
  {
    "name":"本城1丁目平屋倉庫付事務所(ﾃﾅﾝﾄ)",
    "kana":"ホンジョウ１チョウメヒラヤソウコツキジムショテナント",
    "zip":"807-0801",
    "address":"北九州市八幡西区本城1-20-25",
    "lat":33.8816597,
    "lng":130.7287872
  },
  {
    "name":"本城3丁目店舗(ﾃﾅﾝﾄ)",
    "kana":"ホンジョウ３チョウメテンポ",
    "zip":"807-0801",
    "address":"北九州市八幡西区本城3-17-3",
    "lat":33.8820254,
    "lng":130.7299248
  },
  {
    "name":"本城1丁目倉庫付事務所2(ﾃﾅﾝﾄ)",
    "kana":"ホンジョウ１チョウメソウコツキジムショ２",
    "zip":"807-0801",
    "address":"北九州市八幡西区本城1-18-12",
    "lat":33.8810867,
    "lng":130.7298614
  },
  {
    "name":"山口アパート",
    "kana":"ヤマグチアパート",
    "zip":"822-1201",
    "address":"田川郡福智町伊方4000-8",
    "lat":33.6829634,
    "lng":130.7958686
  },
  {
    "name":"山口貸家",
    "kana":"ヤマグチカシヤ",
    "zip":"822-1201",
    "address":"田川郡福智町伊方4000-7",
    "lat":33.6830812,
    "lng":130.7958863
  },
  {
    "name":"下境倉庫　（倉庫）",
    "kana":"シモザカイソウコ",
    "zip":"822-0032",
    "address":"直方市大字下境3566番",
    "lat":33.7240444,
    "lng":130.7407841
  },
  {
    "name":"OASIS上伊田",
    "kana":"オアシスカミイタ",
    "zip":"825-0002",
    "address":"田川市大字伊田757-1",
    "lat":33.6487174,
    "lng":130.8268017
  },
  {
    "name":"K-HOUSE",
    "kana":"ケーハウス",
    "zip":"820-0052",
    "address":"飯塚市相田188-8",
    "lat":33.6621583,
    "lng":130.6642856
  },
  {
    "name":"アンビシャス近大前",
    "kana":"アンビシャスキンダイマエ",
    "zip":"820-0112",
    "address":"飯塚市有井290-14",
    "lat":33.6479946,
    "lng":130.723575
  },
  {
    "name":"Mハイツ近大前",
    "kana":"エムハイツキンダイマエ",
    "zip":"820-0112",
    "address":"飯塚市有井282-3",
    "lat":33.6479116,
    "lng":130.7233043
  },
  {
    "name":"ドリーム古川",
    "kana":"ドリームフルカワ",
    "zip":"820-0608",
    "address":"嘉穂郡桂川町大字豆田58-1",
    "lat":33.5814915,
    "lng":130.6570703
  },
  {
    "name":"知古貸家（11-13）",
    "kana":"チコカシヤ",
    "zip":"822-0022",
    "address":"直方市知古2丁目11-13",
    "lat":33.7572649,
    "lng":130.724758
  },
  {
    "name":"植木平屋戸建",
    "kana":"ウエキヒラヤコダテ",
    "zip":"822-0031",
    "address":"直方市大字植木1057-18",
    "lat":33.7761274,
    "lng":130.7120459
  },
  {
    "name":"中泉長屋",
    "kana":"ナカイズミナガヤ",
    "zip":"822-0011",
    "address":"直方市中泉1018-60",
    "lat":33.7125471,
    "lng":130.7320808
  },
  {
    "name":"ＯＭコーポⅠ・Ⅱ（戸別）",
    "kana":"オームコーポワン・ツー",
    "zip":"820-0012",
    "address":"飯塚市下三緒 35－4",
    "lat":33.6371575,
    "lng":130.7120377
  },
  {
    "name":"エステート蛍ヶ丘",
    "kana":"エステートホタルガオカ",
    "zip":"825-0004",
    "address":"田川市夏吉１２６１-２８",
    "lat":33.6565449,
    "lng":130.8269165
  },
  {
    "name":"グランデ蛍ヶ丘",
    "kana":"グランデホタルガオカ",
    "zip":"825-0004",
    "address":"田川市夏吉194番地413",
    "lat":33.6597641,
    "lng":130.8216775
  },
  {
    "name":"梅尾アパート（戸別）",
    "kana":"ウメオアパート",
    "zip":"820-0069",
    "address":"飯塚市宮町2-53",
    "lat":33.6426773,
    "lng":130.6828653
  },
  {
    "name":"川島コーポ(305,306)（区分）",
    "kana":"カワシマコーポ305.306",
    "zip":"820-0002",
    "address":"飯塚市川島144-1",
    "lat":33.6542771,
    "lng":130.6911568
  },
  {
    "name":"サーパス新立岩(101)（区分）",
    "kana":"サーパスシンタテイワ101",
    "zip":"820-0004",
    "address":"飯塚市新立岩9-12",
    "lat":33.6473309,
    "lng":130.6889585
  },
  {
    "name":"漆生一棟二戸建",
    "kana":"ウルシオイットウニコダテ",
    "zip":"820-0201",
    "address":"嘉麻市漆生1523-3",
    "lat":33.5925057,
    "lng":130.7198513
  },
  {
    "name":"愛宕中島貸家",
    "kana":"アタゴナカシマカシヤ",
    "zip":"820-0001",
    "address":"飯塚市鯰田2525-122",
    "lat":33.652089,
    "lng":130.6998958
  },
  {
    "name":"本多貸家・店舗(1F店･2F住居）",
    "kana":"ホンダカシヤ・テンポ",
    "zip":"820-0005",
    "address":"飯塚市新飯塚15-26",
    "lat":33.643764,
    "lng":130.6919538
  },
  {
    "name":"茂浦口貸家",
    "kana":"シゲウラグチカシヤ",
    "zip":"820-0066",
    "address":"飯塚市幸袋781-12",
    "lat":33.661647,
    "lng":130.6795504
  },
  {
    "name":"ゆたかひがしハイツ",
    "kana":"ユタカヒガシハイツ",
    "zip":"820-0016",
    "address":"飯塚市菰田東2丁目1-2",
    "lat":33.6298324,
    "lng":130.6900473
  },
  {
    "name":"古賀アパート",
    "kana":"コガアパート",
    "zip":"820-0053",
    "address":"飯塚市伊岐須320-2",
    "lat":33.6520788,
    "lng":130.6642544
  },
  {
    "name":"ハイツユリノキ",
    "kana":"ハイツユリノキ",
    "zip":"820-0068",
    "address":"飯塚市片島2丁目18-5",
    "lat":33.6457837,
    "lng":130.6837407
  },
  {
    "name":"高野貸家",
    "kana":"タカノカシヤ",
    "zip":"820-1114",
    "address":"飯塚市口原179-1",
    "lat":33.6798826,
    "lng":130.7152288
  },
  {
    "name":"アート２１（戸別）",
    "kana":"アートヒルズアカマツダイ21",
    "zip":"820-0053",
    "address":"飯塚市伊岐須66-12",
    "lat":33.654966,
    "lng":130.6667407
  },
  {
    "name":"新飯塚村山店舗 （テナント）",
    "kana":"シンイイヅカムラヤマテンポ",
    "zip":"820-0005",
    "address":"飯塚市新飯塚10-4",
    "lat":33.6435812,
    "lng":130.6926998
  },
  {
    "name":"コーポアルファ",
    "kana":"コーポアルファ",
    "zip":"820-0001",
    "address":"飯塚市鯰田1077-6",
    "lat":33.6625106,
    "lng":130.704332
  },
  {
    "name":"シティハイツイギスⅡ",
    "kana":"シティハイツイギスツー",
    "zip":"820-0054",
    "address":"飯塚市伊川590-1",
    "lat":33.6526397,
    "lng":130.6546914
  },
  {
    "name":"東徳前広田貸家",
    "kana":"ヒガシトクゼンヒロタカシヤ",
    "zip":"820-0032",
    "address":"飯塚市東徳前17-60",
    "lat":33.6344759,
    "lng":130.678239
  },
  {
    "name":"西徳前広田貸家",
    "kana":"ニシトクゼンヒロタカシヤ",
    "zip":"820-0031",
    "address":"飯塚市西徳前10-5",
    "lat":33.6359373,
    "lng":130.6781686
  },
  {
    "name":"鯰田三好貸家",
    "kana":"ナマズタミヨシカシヤ",
    "zip":"820-0001",
    "address":"飯塚市鯰田2425-96",
    "lat":33.6564517,
    "lng":130.6970565
  },
  {
    "name":"ケイハイツⅠ（戸別）",
    "kana":"ケイハイツワン",
    "zip":"820-0052",
    "address":"飯塚市相田５７３－１",
    "lat":33.6632879,
    "lng":130.6594094
  },
  {
    "name":"ケイハイツⅡ(102）（戸別）",
    "kana":"ケイハイツワンツー",
    "zip":"820-0052",
    "address":"飯塚市相田５７３－１",
    "lat":33.6632879,
    "lng":130.6594094
  },
  {
    "name":"ケイハイツⅢ(101,205)(戸別)",
    "kana":"ケイハイツスリー",
    "zip":"820-0052",
    "address":"飯塚市相田５７２",
    "lat":33.6631341,
    "lng":130.6599521
  },
  {
    "name":"マルトミコーポ",
    "kana":"マルトミコーポ",
    "zip":"820-0044",
    "address":"飯塚市横田461-1",
    "lat":33.6385437,
    "lng":130.6716728
  },
  {
    "name":"古賀本町店舗・倉庫（テナント）",
    "kana":"コガホンマチテンポ・ソウコ",
    "zip":"820-0042",
    "address":"飯塚市本町19-46",
    "lat":33.6389809,
    "lng":130.6824036
  },
  {
    "name":"サルヴァトーレ立岩 ",
    "kana":"サレヴァトーレタテイワ",
    "zip":"820-0004",
    "address":"飯塚市新立岩４－１４",
    "lat":33.6461074,
    "lng":130.6919858
  },
  {
    "name":"綜合団地",
    "kana":"ソウゴウダンチ",
    "zip":"820-0073",
    "address":"飯塚市平恒209-1",
    "lat":33.611319,
    "lng":130.689399
  },
  {
    "name":"マルゼン２１",
    "kana":"マルゼン21",
    "zip":"820-0115",
    "address":"飯塚市仁保３７４－４",
    "lat":33.6511138,
    "lng":130.7285051
  },
  {
    "name":"コーポ柏の森（戸別）",
    "kana":"コーポカヤノモリ",
    "zip":"820-0011",
    "address":"飯塚市柏の森１１０－５９",
    "lat":33.6378038,
    "lng":130.7055979
  },
  {
    "name":"サニーロイヤル(502)",
    "kana":"サニーロイヤル502",
    "zip":"820-0018",
    "address":"飯塚市芳雄町１－１４",
    "lat":33.6420718,
    "lng":130.6933794
  },
  {
    "name":"小林（黒川）貸家・店舗",
    "kana":"コバヤシクロカワカシヤテンポ",
    "zip":"820-0041",
    "address":"飯塚市飯塚10-10",
    "lat":33.6359959,
    "lng":130.6858263
  },
  {
    "name":"下山田佐藤貸家",
    "kana":"シマヤマダサトウカシヤ",
    "zip":"821-0011",
    "address":"嘉麻市下山田135-64",
    "lat":33.5686739,
    "lng":130.7601898
  },
  {
    "name":"鯰田佐藤貸家",
    "kana":"ナマズタサトウカシヤ",
    "zip":"820-0001",
    "address":"飯塚市鯰田2425-110",
    "lat":33.6565287,
    "lng":130.6967636
  },
  {
    "name":"成松倉庫（車庫）",
    "kana":"ナリマツソウコシャコ",
    "zip":"820-0065",
    "address":"飯塚市中442-3",
    "lat":33.665442,
    "lng":130.685247
  },
  {
    "name":"昭和アパート ",
    "kana":"ショウワアパート",
    "zip":"820-0012",
    "address":"飯塚市下三緒１９４－4",
    "lat":33.63612,
    "lng":130.7058537
  },
  {
    "name":"天神坂貸家 ",
    "kana":"テンジンザカカシヤ",
    "zip":"820-0011",
    "address":"飯塚市柏の森146-14",
    "lat":33.6419672,
    "lng":130.7035181
  },
  {
    "name":"木村ビル（テナント）",
    "kana":"キムラビルテナント",
    "zip":"820-0040",
    "address":"飯塚市吉原町2-13",
    "lat":33.6412634,
    "lng":130.685261
  },
  {
    "name":"片島木村アパート",
    "kana":"カタシマキムラアパート",
    "zip":"820-0068",
    "address":"飯塚市片島3丁目6-20",
    "lat":33.6498001,
    "lng":130.6821806
  },
  {
    "name":"フラット２古賀",
    "kana":"フラット2コガ",
    "zip":"820-0067",
    "address":"飯塚市川津256-1",
    "lat":33.6496305,
    "lng":130.6797791
  },
  {
    "name":"古賀ビル",
    "kana":"コガビル",
    "zip":"820-0067",
    "address":"飯塚市川津151-1",
    "lat":33.653509,
    "lng":130.6803373
  },
  {
    "name":"飯塚石坂店舗（テナント）",
    "kana":"イイヅカイシザカテンポ",
    "zip":"820-0041",
    "address":"飯塚市飯塚4-7",
    "lat":33.6372148,
    "lng":130.6873598
  },
  {
    "name":"鯰田貸家",
    "kana":"ナマズタカシヤ",
    "zip":"820-0001",
    "address":"飯塚市鯰田2310-151",
    "lat":33.662043,
    "lng":130.696513
  },
  {
    "name":"川島貸地（貸地）",
    "kana":"カワシマカシチ",
    "zip":"822-0001",
    "address":"直方市大字感田1040番4",
    "lat":33.7633911,
    "lng":130.7398323
  },
  {
    "name":"コーポ谷口",
    "kana":"コーポタニグチ",
    "zip":"822-0041",
    "address":"田川市大字弓削田1581-2",
    "lat":33.6301602,
    "lng":130.777037
  },
  {
    "name":"サンライズ恵比須",
    "kana":"サンライズエビス",
    "zip":"826-0023",
    "address":"田川市上本町1-43",
    "lat":33.6273354,
    "lng":130.7994857
  },
  {
    "name":"サンライズ恵比須（テナント）",
    "kana":"サンライズエビステナント",
    "zip":"826-0023",
    "address":"田川市上本町1-43",
    "lat":33.6273354,
    "lng":130.7994857
  },
  {
    "name":"下田屋ビル（テナント）",
    "kana":"シモタヤビルテナント",
    "zip":"826-0041",
    "address":"田川市弓削田1459",
    "lat":33.6317371,
    "lng":130.7812307
  },
  {
    "name":"本町店舗・事務所・駐車場(テナント）",
    "kana":"ホンマチテンポジムショチュウシャジョウ",
    "zip":"826-0022",
    "address":"田川市本町3-25",
    "lat":33.6306854,
    "lng":130.7990521
  },
  {
    "name":"風とひなたのアマルフィ　旧：パールハイツ",
    "kana":"カゼトヒナタノアマルフィ",
    "zip":"820-0052",
    "address":"飯塚市相田249-1",
    "lat":33.6579995,
    "lng":130.6618211
  },
  {
    "name":"フラット３肘井",
    "kana":"フラット2コガ3ヒジイ",
    "zip":"820-0052",
    "address":"飯塚市相田137-1",
    "lat":33.6589992,
    "lng":130.6630022
  },
  {
    "name":"西の原ハイツ",
    "kana":"ニシノハラハイツ",
    "zip":"820-0052",
    "address":"飯塚市相田398-1",
    "lat":33.6617693,
    "lng":130.6573478
  },
  {
    "name":"コーポ老松",
    "kana":"コーポオイマツ",
    "zip":"820-0032",
    "address":"飯塚市東徳前18-19",
    "lat":33.6353699,
    "lng":130.6787505
  },
  {
    "name":"菰田東戸建て",
    "kana":"コモダヒガシコダテ",
    "zip":"820-0016",
    "address":"飯塚市菰田東2-14-13",
    "lat":33.6299175,
    "lng":130.691637
  },
  {
    "name":"レジデンスＫＰ",
    "kana":"レジデンスケーピー",
    "zip":"826-0021",
    "address":"田川市桜町13-27",
    "lat":33.6364747,
    "lng":130.7965243
  },
  {
    "name":"セントーレ目尾",
    "kana":"セントーレシャカノオ",
    "zip":"820-0062",
    "address":"飯塚市目尾786-1",
    "lat":33.6756532,
    "lng":130.7022721
  },
  {
    "name":"丸山町戸建",
    "kana":"マルヤママチコダテ",
    "zip":"826-0033",
    "address":"田川市丸山町6-10",
    "lat":33.6261129,
    "lng":130.8025111
  },
  {
    "name":"自然素材の借家",
    "kana":"シゼンソザイノシャクヤ",
    "zip":"822-1201",
    "address":"田川郡福智町伊方4500-75",
    "lat":33.6833221,
    "lng":130.7946241
  },
  {
    "name":"AGANO貸家",
    "kana":"アガノカシヤ",
    "zip":"822-1102",
    "address":"田川郡福智町上野1065-91",
    "lat":33.707058,
    "lng":130.7845868
  },
  {
    "name":"金田貸家（中村工務店様）",
    "kana":"カナダカシヤナカムラコウムテンサマ",
    "zip":"822-1201",
    "address":"田川郡福智町金田906-11",
    "lat":33.6806801,
    "lng":130.7798856
  },
  {
    "name":"ステーションハイツⅠ",
    "kana":"ステーションハイツワン",
    "zip":"822-0032",
    "address":"直方市大字下新入379-2",
    "lat":33.7605973,
    "lng":130.7163814
  },
  {
    "name":"ステーションハイツⅡ",
    "kana":"ステーションハイツツー",
    "zip":"822-0032",
    "address":"直方市大字下新入379-2",
    "lat":33.7605973,
    "lng":130.7163814
  },
  {
    "name":"OASIS日吉台",
    "kana":"オアシスヒヨウシダイ",
    "zip":"807-0866",
    "address":"北九州市八幡西区日吉台2-24-13",
    "lat":33.8626081,
    "lng":130.7035627
  },
  {
    "name":"鴨生テナント（テナント）",
    "kana":"カモオテナント",
    "zip":"820-0206",
    "address":"嘉麻市鴨生468-1",
    "lat":33.609187,
    "lng":130.7238247
  },
  {
    "name":"鴨生テナント2（テナント）",
    "kana":"カモウテナント2",
    "zip":"820-0206",
    "address":"嘉麻市鴨生468-1",
    "lat":33.609187,
    "lng":130.7238247
  },
  {
    "name":"平野店舗（テナント）",
    "kana":"ヒラノテンポテナント",
    "zip":"820-0206",
    "address":"嘉麻市鴨生462-4",
    "lat":33.6093568,
    "lng":130.7232531
  },
  {
    "name":"第五センターコーポ",
    "kana":"ダイゴセンターコーポ",
    "zip":"825-0016",
    "address":"田川市新町3-25",
    "lat":33.642849,
    "lng":130.8091507
  },
  {
    "name":"エレガンスハイツ新町",
    "kana":"エレガンスハイツシンマチ",
    "zip":"825-0016",
    "address":"田川市新町3-26",
    "lat":33.6429114,
    "lng":130.8093477
  },
  {
    "name":"ブライトヒル九工大前",
    "kana":"ブライトヒルキュウコウダイマエ",
    "zip":"820-0053",
    "address":"飯塚市伊岐須1-215",
    "lat":33.6578248,
    "lng":130.6684226
  },
  {
    "name":"フローラル目尾",
    "kana":"フローラルシャカノオ",
    "zip":"820-0062",
    "address":"飯塚市目尾1313-10",
    "lat":33.6812762,
    "lng":130.7082016
  },
  {
    "name":"糸田町貸家（原様）",
    "kana":"イトダマチカシヤハラサマ",
    "zip":"822-1300",
    "address":"田川郡糸田町打越3767-4",
    "lat":33.6610996,
    "lng":130.7824708
  },
  {
    "name":"グレイス",
    "kana":"グレイス",
    "zip":"826-0033",
    "address":"田川市丸山町1-13",
    "lat":33.628697,
    "lng":130.8021552
  },
  {
    "name":"江藤アパート",
    "kana":"エトウアパート",
    "zip":"820-0031",
    "address":"飯塚市西徳前3-9",
    "lat":33.6375107,
    "lng":130.6817256
  },
  {
    "name":"糒戸建て（松本様）",
    "kana":"ホシイコダテマツモトサマ",
    "zip":"825-0005",
    "address":"田川市糒1700-429",
    "lat":33.6604713,
    "lng":130.800387
  },
  {
    "name":"桜ハイツ",
    "kana":"サクラハイツ",
    "zip":"826-0045",
    "address":"田川市大字猪国2015-1",
    "lat":33.5804217,
    "lng":130.7851175
  },
  {
    "name":"龍徳戸建",
    "kana":"リュウトクコダテ",
    "zip":"823-0001",
    "address":"宮若市龍徳8-82",
    "lat":33.7337369,
    "lng":130.7135067
  },
  {
    "name":"植木貸家",
    "kana":"ウエキカシヤ",
    "zip":"822-0031",
    "address":"直方市植木102-8",
    "lat":33.7636806,
    "lng":130.700483
  },
  {
    "name":"潤野戸建",
    "kana":"ウルノコダテ",
    "zip":"820-0021",
    "address":"飯塚市潤野750-14",
    "lat":33.6347973,
    "lng":130.6534128
  },
  {
    "name":"下三緒貸家（35-313）",
    "kana":"シモミオカシヤ35-313",
    "zip":"820-0012",
    "address":"飯塚市下三緒35-313",
    "lat":33.636172,
    "lng":130.713055
  },
  {
    "name":"幸田アパート",
    "kana":"コウダアパート",
    "zip":"822-0032",
    "address":"直方市下新入1316",
    "lat":33.76518,
    "lng":130.7065543
  },
  {
    "name":"感田テナント（テナント）",
    "kana":"ガンダテナント",
    "zip":"822-0001",
    "address":"直方市感田527-4",
    "lat":33.7598373,
    "lng":130.7363063
  },
  {
    "name":"頓野戸建",
    "kana":"トンノコダテ",
    "zip":"822-0002",
    "address":"直方市頓野1170-4",
    "lat":33.7568757,
    "lng":130.7557867
  },
  {
    "name":"Spring Stone Ａ棟",
    "kana":"スプリングストーンエートウ",
    "zip":"822-0002",
    "address":"直方市頓野1505-13",
    "lat":33.7566363,
    "lng":130.7467876
  },
  {
    "name":"Spring Stone Ｂ棟",
    "kana":"スプリングストーンビートウ",
    "zip":"822-0002",
    "address":"直方市頓野1505-14",
    "lat":33.7567378,
    "lng":130.7472877
  },
  {
    "name":"勢田貸家",
    "kana":"セイタカシヤ",
    "zip":"820-1111",
    "address":"飯塚市勢田338-67-327",
    "lat":33.6918769,
    "lng":130.7348854
  },
  {
    "name":"知古戸建",
    "kana":"チコカシヤ",
    "zip":"822-0022",
    "address":"直方市知古2-9-8",
    "lat":33.7581097,
    "lng":130.7248525
  },
  {
    "name":"口原テナント（テナント）",
    "kana":"クチノハラテナント",
    "zip":"820-1114",
    "address":"飯塚市口原923-10",
    "lat":33.6846955,
    "lng":130.7178676
  },
  {
    "name":"桃山グリーンハイツ",
    "kana":"モモヤマグリーンハイツ",
    "zip":"822-1300",
    "address":"田川郡糸田町桃山3960-2",
    "lat":33.6613128,
    "lng":130.785129
  },
  {
    "name":"プランドゥ宮若",
    "kana":"プランドゥミヤワカ",
    "zip":"822-0151",
    "address":"宮若市水原925-1",
    "lat":33.7402809,
    "lng":130.6146372
  },
  {
    "name":"サフィール",
    "kana":"サフィール",
    "zip":"825-0014",
    "address":"田川市大字魚町15-2",
    "lat":33.6436116,
    "lng":130.8194349
  },
  {
    "name":"コーポ松尾",
    "kana":"コーポマツオ",
    "zip":"822-0031",
    "address":"直方市植木978-13",
    "lat":33.7741779,
    "lng":130.7076967
  },
  {
    "name":"ナポレオンビル（テナント）",
    "kana":"ナポレオンビル",
    "zip":"825-0015",
    "address":"田川市伊田町6-34",
    "lat":33.6440607,
    "lng":130.8139569
  },
  {
    "name":"川島戸建",
    "kana":"カワシマコダテ",
    "zip":"820-0002",
    "address":"飯塚市川島57-8",
    "lat":33.6537198,
    "lng":130.691644
  },
  {
    "name":"グリーンガーデンⅡ",
    "kana":"グリーンガーデンツー",
    "zip":"822-1201",
    "address":"田川郡福智町金田1344",
    "lat":33.686345,
    "lng":130.7749249
  },
  {
    "name":"スプリト上伊田",
    "kana":"スプリトカミイタ",
    "zip":"825-0002",
    "address":"田川市伊田1425，1426",
    "lat":33.648485,
    "lng":130.8289198
  },
  {
    "name":"スプリト伊田",
    "kana":"スプリトイタ",
    "zip":"825-0002",
    "address":"田川市伊田2444番9",
    "lat":33.6487174,
    "lng":130.8268017
  },
  {
    "name":"フラット３花山",
    "kana":"フラット3ハナヤマ",
    "zip":"820-0044",
    "address":"飯塚市横田47",
    "lat":33.6447443,
    "lng":130.6742944
  },
  {
    "name":"大任貸家",
    "kana":"オオトウカシヤ",
    "zip":"824-0512",
    "address":"田川郡大任町大行事4017-7",
    "lat":33.6104503,
    "lng":130.8481001
  },
  {
    "name":"栗田コーポ",
    "kana":"クリタコーポ",
    "zip":"826-0002",
    "address":"田川郡川崎町大字池尻639",
    "lat":33.6211622,
    "lng":130.7982794
  },
  {
    "name":"春日町貸家",
    "kana":"カスガマチカシヤ",
    "zip":"826-0026",
    "address":"田川市春日町6-20",
    "lat":33.6298193,
    "lng":130.7963659
  },
  {
    "name":"第7センターコーポ",
    "kana":"ダイ7センターコーポ",
    "zip":"825-0004",
    "address":"田川市夏吉1150-11",
    "lat":33.6627212,
    "lng":130.8231215
  },
  {
    "name":"第7センターコーポ（戸建）",
    "kana":"ダイ7センターコーポコダテ",
    "zip":"825-0004",
    "address":"田川市夏吉1150-11",
    "lat":33.6627212,
    "lng":130.8231215
  },
  {
    "name":"第3センターコーポ A棟",
    "kana":"ダイ3センターコーポエートウ",
    "zip":"825-0011",
    "address":"田川市栄町15-10",
    "lat":33.6370363,
    "lng":130.8071632
  },
  {
    "name":"第3センターコーポ B棟",
    "kana":"ダイ3センターコーポビートウ",
    "zip":"825-0011",
    "address":"田川市栄町15-11",
    "lat":33.6369531,
    "lng":130.8070709
  },
  {
    "name":"第6センターコーポ",
    "kana":"ダイ6センターコーポ",
    "zip":"825-0011",
    "address":"田川市栄町14-28",
    "lat":33.6366214,
    "lng":130.8075013
  },
  {
    "name":"魚町貸家",
    "kana":"ウオマチカシヤ",
    "zip":"825-0014",
    "address":"田川市魚町15-15",
    "lat":33.643499,
    "lng":130.8194961
  },
  {
    "name":"桜町貸家",
    "kana":"サクラマチカシヤ",
    "zip":"826-0021",
    "address":"田川市桜町12-41",
    "lat":33.6361992,
    "lng":130.7953495
  },
  {
    "name":"赤池貸家",
    "kana":"アカイケカシヤ",
    "zip":"822-1101",
    "address":"田川郡福智町赤池138",
    "lat":33.6928185,
    "lng":130.7726516
  },
  {
    "name":"栄町クラブ1号・2号",
    "kana":"サカエマチクラブ1ゴウ2ゴウ",
    "zip":"825-0011",
    "address":"田川市栄町16-2",
    "lat":33.6374478,
    "lng":130.8064795
  },
  {
    "name":"川崎戸建",
    "kana":"カワサキコダテ",
    "zip":"827-0003",
    "address":"田川郡川崎町大字川崎795-2",
    "lat":33.5921319,
    "lng":130.821293
  },
  {
    "name":"伊田貸家",
    "kana":"イタコダテ",
    "zip":"825-0002",
    "address":"田川市伊田4357",
    "lat":33.6487174,
    "lng":130.8268017
  },
  {
    "name":"福智町上野テナント（テナント）",
    "kana":"フクチマチアガノテナント",
    "zip":"822-1102",
    "address":"田川郡福智町上野313-1",
    "lat":33.7006372,
    "lng":130.7733144
  },
  {
    "name":"横田貸家",
    "kana":"ヨコタカシヤ",
    "zip":"820-0044",
    "address":"飯塚市横田375-96",
    "lat":33.6400296,
    "lng":130.6734407
  },
  {
    "name":"SKY(川宮）",
    "kana":"スカイカワミヤ",
    "zip":"826-0042",
    "address":"田川市大字川宮1759-4",
    "lat":33.6447857,
    "lng":130.7943836
  },
  {
    "name":"伊田貸家",
    "kana":"イタカシヤ",
    "zip":"825-0002",
    "address":"田川市伊田589-3",
    "lat":33.6435152,
    "lng":130.8371299
  },
  {
    "name":"下境貸家",
    "kana":"シモザカイカシヤ",
    "zip":"822-0007",
    "address":"直方市下境1248-7",
    "lat":33.7278483,
    "lng":130.7459702
  },
  {
    "name":"池尻平屋",
    "kana":"イケジリヒラヤ",
    "zip":"827-0002",
    "address":"田川郡川崎町池尻681-4",
    "lat":33.6217001,
    "lng":130.8013247
  },
  {
    "name":"川崎貸家（佐藤様）",
    "kana":"カワサキカシヤサトウサマ",
    "zip":"827-0004",
    "address":"田川郡川崎町田原1913-1",
    "lat":33.6101821,
    "lng":130.8017888
  },
  {
    "name":"赤池貸家(佐藤様)",
    "kana":"アカイケカシヤサトウサマ",
    "zip":"822-1101",
    "address":"田川郡福智町赤池432",
    "lat":33.6932427,
    "lng":130.7629424
  },
  {
    "name":"大任貸家（佐藤様）",
    "kana":"オオトウカシヤサトウサマ",
    "zip":"824-0512",
    "address":"田川郡大任町大行事4696-1",
    "lat":33.6087519,
    "lng":130.8394255
  },
  {
    "name":"糸田AP",
    "kana":"イトダマチアパート",
    "zip":"822-1300",
    "address":"田川郡糸田町3732-4",
    "lat":33.6527454,
    "lng":130.7790436
  },
  {
    "name":"OAマンションⅠ",
    "kana":"オーエーマンションワン",
    "zip":"825-0016",
    "address":"田川市新町4-11",
    "lat":33.6432661,
    "lng":130.808957
  },
  {
    "name":"OAマンションⅤ",
    "kana":"オーエーマンションワンファイブ",
    "zip":"825-0016",
    "address":"田川市新町4-9",
    "lat":33.643125,
    "lng":130.8090977
  },
  {
    "name":"綱分貸家",
    "kana":"ツナワキカシヤ",
    "zip":"820-0101",
    "address":"飯塚市綱分1461-12",
    "lat":33.6291301,
    "lng":130.7249441
  },
  {
    "name":"永犬丸東町戸建",
    "kana":"エイノマルヒガシマチコダテ",
    "zip":"807-0842",
    "address":"北九州市八幡西区永犬丸東町2-1-7",
    "lat":33.8376938,
    "lng":130.7420283
  },
  {
    "name":"伊岐須平屋",
    "kana":"イギスヒラヤ",
    "zip":"820-0053",
    "address":"飯塚市伊岐須千手186-14",
    "lat":33.6521073,
    "lng":130.6613322
  },
  {
    "name":"池田戸建",
    "kana":"イケダコダテ",
    "zip":"809-0024",
    "address":"中間市池田1-25-27",
    "lat":33.8124723,
    "lng":130.7267518
  },
  {
    "name":"コーポ寿命",
    "kana":"コーポジュメイ",
    "zip":"820-0603",
    "address":"嘉穂郡桂川町寿命620",
    "lat":33.5877656,
    "lng":130.6693316
  },
  {
    "name":"寿命ハイツ",
    "kana":"ジュメイハイツ",
    "zip":"820-0603",
    "address":"嘉穂郡桂川町寿命621",
    "lat":33.5881401,
    "lng":130.6696442
  },
  {
    "name":"アンビシオン西本町",
    "kana":"アンビシオンニシホンマチ",
    "zip":"826-0024",
    "address":"田川市西本町3-61",
    "lat":33.624921,
    "lng":130.7967125
  },
  {
    "name":"Ark Prime",
    "kana":"アークプライム",
    "zip":"826-0041",
    "address":"田川市弓削田575-14",
    "lat":33.6386031,
    "lng":130.782558
  },
  {
    "name":"エンゼルハイツ茜",
    "kana":"エンゼルハイツアカネ",
    "zip":"820-0052",
    "address":"飯塚市相田246-1",
    "lat":33.6586288,
    "lng":130.6618441
  },
  {
    "name":"赤池貸家（平名様）",
    "kana":"アカイケカシヤヒラナサマ",
    "zip":"822-1101",
    "address":"田川郡福智町赤池578-16",
    "lat":33.6940743,
    "lng":130.7685256
  },
  {
    "name":"赤池生力貸家(平名様)",
    "kana":"アカイケショウリキカシヤヒラナサマ",
    "zip":"822-1101",
    "address":"田川郡福智町赤池1017-84",
    "lat":33.6990319,
    "lng":130.7624567
  },
  {
    "name":"植木貸家（平名様）",
    "kana":"ウエキカシヤヒラナサマ",
    "zip":"822-0031",
    "address":"直方市植木632-2",
    "lat":33.7726823,
    "lng":130.7117575
  },
  {
    "name":"伊方戸建",
    "kana":"イカタコダテ",
    "zip":"822-1201",
    "address":"田川郡福智町伊方3767-4",
    "lat":33.679573,
    "lng":130.793375
  },
  {
    "name":"感田戸建（平名様）",
    "kana":"ガンダコダテヒラナサマ",
    "zip":"822-0001",
    "address":"直方市感田1551-10",
    "lat":33.7681981,
    "lng":130.7384384
  },
  {
    "name":"下境貸家（2126-6）",
    "kana":"シモザカイカシヤ2126-6",
    "zip":"822-0007",
    "address":"直方市下境2126-6",
    "lat":33.731872,
    "lng":130.7397944
  },
  {
    "name":"中津原貸家（2381-2）",
    "kana":"ナカツバラカシヤ2381-2",
    "zip":"822-1405",
    "address":"田川郡香春町中津原2381-2",
    "lat":33.6490379,
    "lng":130.8478918
  },
  {
    "name":"幸袋戸建（門田様）",
    "kana":"コウブクロコダテカドタサマ",
    "zip":"820-0065",
    "address":"飯塚市幸袋612-12",
    "lat":33.6615886,
    "lng":130.6816556
  },
  {
    "name":"サンセルコビル（テナント）",
    "kana":"サンセルコビル",
    "zip":"810-0004",
    "address":"福岡市中央区渡辺通1-1-1-3階 19号",
    "lat":33.5829487,
    "lng":130.407134
  },
  {
    "name":"中村荘",
    "kana":"ナカムラソウ",
    "zip":"825-0002",
    "address":"田川市伊田1613",
    "lat":33.6514088,
    "lng":130.8302271
  },
  {
    "name":"中村貸家(1479)",
    "kana":"ナカムラカシヤ1479",
    "zip":"825-0002",
    "address":"田川市伊田1479",
    "lat":33.6484469,
    "lng":130.8300267
  },
  {
    "name":"中村貸家（1206-1）",
    "kana":"ナカムラカシヤ1206-1",
    "zip":"825-0002",
    "address":"田川市伊田1206-1",
    "lat":33.6472718,
    "lng":130.8295759
  },
  {
    "name":"中村貸家(1401-1)",
    "kana":"ナカムラカシヤ1401-1",
    "zip":"825-0002",
    "address":"田川市伊田1401-1",
    "lat":33.6488946,
    "lng":130.8273306
  },
  {
    "name":"中村貸家(1618-1)",
    "kana":"ナカムラカシヤ1618-1",
    "zip":"825-0002",
    "address":"田川市伊田1618-1",
    "lat":33.6512079,
    "lng":130.8296342
  },
  {
    "name":"中村貸地(1202-6) ※貸地 年1回　テナント扱い",
    "kana":"ナカムラカシヤ1202-6",
    "zip":"825-0002",
    "address":"田川市伊田1202-6",
    "lat":33.647734,
    "lng":130.8293639
  },
  {
    "name":"ヘーベルメゾン企救丘",
    "kana":"ヘーベルメゾンキクガオカ",
    "zip":"802-0981",
    "address":"小倉南区企救丘1-17-26",
    "lat":33.8244205,
    "lng":130.8772527
  },
  {
    "name":"スペースイルム",
    "kana":"スペースイルム",
    "zip":"820-0001",
    "address":"飯塚市鯰田2317番地17-1.2.3.4.5.6",
    "lat":33.6612516,
    "lng":130.6988054
  },
  {
    "name":"YDSエステート",
    "kana":"ワイディーエスエステート",
    "zip":"820-0045",
    "address":"飯塚市花瀬31-5",
    "lat":33.6423109,
    "lng":130.6618831
  },
  {
    "name":"丸山貸家",
    "kana":"マルヤマカシヤ",
    "zip":"826-0033",
    "address":"田川市丸山町7-7",
    "lat":33.6260418,
    "lng":130.8033032
  },
  {
    "name":"ヴィヴレ糒",
    "kana":"ヴィヴレホシイ",
    "zip":"825-0005",
    "address":"田川市大字糒1789-19",
    "lat":33.6556773,
    "lng":130.8039905
  },
  {
    "name":"GプリズムⅢ",
    "kana":"ジープリズムスリー",
    "zip":"825-0002",
    "address":"田川市伊田2444-10",
    "lat":33.6487174,
    "lng":130.8268017
  },
  {
    "name":"EAGLEせいりゅう",
    "kana":"イーグルセイリュウ",
    "zip":"807-0071",
    "address":"北九州市八幡西区上の原3丁目2-10",
    "lat":33.8342093,
    "lng":130.7562274
  },
  {
    "name":"グリーンヴュー西ヶ峰",
    "kana":"グリーンヴューニシガミネ",
    "zip":"807-0841",
    "address":"北九州市八幡西区的場町4-34",
    "lat":33.8411764,
    "lng":130.7452576
  },
  {
    "name":"プレジール",
    "kana":"プレジール",
    "zip":"822-1300",
    "address":"田川郡糸田町4099-13",
    "lat":33.6527454,
    "lng":130.7790436
  },
  {
    "name":"桂アパートメント",
    "kana":"カツラアパートメント",
    "zip":"820-0607",
    "address":"嘉穂郡桂川町土師20番",
    "lat":33.5742062,
    "lng":130.6974251
  },
  {
    "name":"伊岐須戸建（281-83）",
    "kana":"イギスコダテ281-83",
    "zip":"820-0053",
    "address":"飯塚市伊岐須281-83",
    "lat":33.6509296,
    "lng":130.6650126
  },
  {
    "name":"SunPower",
    "kana":"サンパワー",
    "zip":"822-0031",
    "address":"直方市植木1326-1",
    "lat":33.7763532,
    "lng":130.7038814
  },
  {
    "name":"赤池貸家（谷川様）",
    "kana":"アカイケカシヤタニガワサマ",
    "zip":"822-1101",
    "address":"田川郡福智町赤池399-120",
    "lat":33.6826424,
    "lng":130.7798359
  },
  {
    "name":"藤原店舗",
    "kana":"フジワラテンポ",
    "zip":"822-0001",
    "address":"直方市感田1357-13",
    "lat":33.7646528,
    "lng":130.7388343
  },
  {
    "name":"感田貸家（藤原様）",
    "kana":"ガンダカシヤフジワラサマ",
    "zip":"822-0001",
    "address":"直方市感田894-66",
    "lat":33.7648256,
    "lng":130.7435593
  },
  {
    "name":"感田借地Ⅰ（テナント扱い）",
    "kana":"ガンダシャクチワン",
    "zip":"822-0001",
    "address":"直方市大字感田1876-2",
    "lat":33.7683258,
    "lng":130.736241
  },
  {
    "name":"感田借地Ⅱ（テナント扱い）",
    "kana":"ガンダシャクチワンツー",
    "zip":"822-0001",
    "address":"直方市大字感田1876-2、1874-5、1874-4",
    "lat":33.7681196,
    "lng":130.736762
  },
  {
    "name":"パステルハウス",
    "kana":"パステルハウス",
    "zip":"826-0044",
    "address":"田川市大字位登61-4",
    "lat":33.6072844,
    "lng":130.7990704
  },
  {
    "name":"コーポ光",
    "kana":"コーポヒカリ",
    "zip":"825-0002",
    "address":"田川市大字伊田3524-3",
    "lat":33.6464755,
    "lng":130.8178426
  },
  {
    "name":"柏の森テナント（テナント）",
    "kana":"カヤノモリテナント",
    "zip":"820-0011",
    "address":"飯塚市柏の森635-1",
    "lat":33.6405263,
    "lng":130.6960086
  },
  {
    "name":"本栖ハイツ",
    "kana":"モトスハイツ",
    "zip":"820-0052",
    "address":"飯塚市相田174-326",
    "lat":33.6613343,
    "lng":130.6662077
  },
  {
    "name":"花田貸家",
    "kana":"ハナダカシヤ",
    "zip":"822-0031",
    "address":"直方市植木425-1",
    "lat":33.7707248,
    "lng":130.7127137
  },
  {
    "name":"OASIS庄内（旧：コーポショーヤ）",
    "kana":"オアシスショウナイ",
    "zip":"820-0101",
    "address":"飯塚市綱分898-14",
    "lat":33.6337922,
    "lng":130.7357814
  },
  {
    "name":"パステルコーポ",
    "kana":"パステルコーポ",
    "zip":"822-0025",
    "address":"直方市日吉町6-8　（家屋番号123-2）",
    "lat":33.7528184,
    "lng":130.7263519
  },
  {
    "name":"パステルコーポ　（テナント）",
    "kana":"パステルコーポテナント",
    "zip":"822-0025",
    "address":"直方市日吉町6-8　（家屋番号123-2）",
    "lat":33.7528184,
    "lng":130.7263519
  },
  {
    "name":"安部貸家",
    "kana":"アベカシヤ",
    "zip":"822-0025",
    "address":"直方市日吉町123-1",
    "lat":33.7506212,
    "lng":130.7291634
  },
  {
    "name":"吉野アパート",
    "kana":"ヨシノアパート",
    "zip":"825-0002",
    "address":"田川市伊田4436",
    "lat":33.651184,
    "lng":130.8171679
  },
  {
    "name":"芦屋戸建",
    "kana":"アシヤコダテ",
    "zip":"807-0132",
    "address":"遠賀郡芦屋町浜口町5-10",
    "lat":33.8849726,
    "lng":130.6707451
  },
  {
    "name":"クレスト後藤寺",
    "kana":"クレストゴトウジ",
    "zip":"826-0026",
    "address":"田川市春日町899-9",
    "lat":33.6298664,
    "lng":130.7959657
  },
  {
    "name":"高松台コーポ",
    "kana":"タカマツダイコーポ",
    "zip":"822-1405",
    "address":"田川郡香春町中津原2456-8",
    "lat":33.6483504,
    "lng":130.845483
  },
  {
    "name":"OAマンションⅡ",
    "kana":"オーエーマンション",
    "zip":"826-0042",
    "address":"田川市大字川宮1632-5",
    "lat":33.6423338,
    "lng":130.8034744
  },
  {
    "name":"Ailes Adashi",
    "kana":"エールアダチ",
    "zip":"802-0042",
    "address":"北九州市小倉北区足立2丁目9-5",
    "lat":33.86567,
    "lng":130.9018966
  },
  {
    "name":"オルティア",
    "kana":"オルティア",
    "zip":"826-0041",
    "address":"田川市弓削田1082-5",
    "lat":33.6341559,
    "lng":130.7786789
  },
  {
    "name":"Doux Maison",
    "kana":"ドゥメゾン",
    "zip":"825-0002",
    "address":"田川市伊田4754-6",
    "lat":33.6514558,
    "lng":130.8058376
  },
  {
    "name":"ドリームマンション優",
    "kana":"ドリームマンションユウ",
    "zip":"822-0034",
    "address":"直方市山部392-1",
    "lat":33.7542882,
    "lng":130.7222333
  },
  {
    "name":"レクエルドⅠ",
    "kana":"レクエルドワン",
    "zip":"811-4147",
    "address":"宗像市石丸2丁目10-18",
    "lat":33.8067902,
    "lng":130.5949907
  },
  {
    "name":"レクエルドⅡ",
    "kana":"レクエルドツー",
    "zip":"811-4147",
    "address":"宗像市石丸2丁目10-15",
    "lat":33.8070381,
    "lng":130.5950161
  },
  {
    "name":"植木アパート",
    "kana":"ウエキアパート",
    "zip":"825-0005",
    "address":"田川市糒598-1",
    "lat":33.6662221,
    "lng":130.8081859
  },
  {
    "name":"ステージＡ",
    "kana":"ステージエー",
    "zip":"826-0043",
    "address":"田川市大字奈良1520-36",
    "lat":33.6232574,
    "lng":130.804785
  },
  {
    "name":"ウェリス花畑",
    "kana":"ウィリスハナバタケ",
    "zip":"830-0038",
    "address":"福岡県久留米市西町1173-12",
    "lat":33.3086794,
    "lng":130.5157546
  },
  {
    "name":"糸田町貸家（2969-16）",
    "kana":"イトダマチカシヤ2969-16",
    "zip":"822-1300",
    "address":"田川郡糸田町2969-16",
    "lat":33.6527454,
    "lng":130.7790436
  },
  {
    "name":"サンビレッジほなみ",
    "kana":"サンビレッジホナミ",
    "zip":"820-0089",
    "address":"飯塚市小正644-1",
    "lat":33.628412,
    "lng":130.6594635
  },
  {
    "name":"マシェリE",
    "kana":"マシェリイー",
    "zip":"807-1261",
    "address":"北九州市八幡西区木屋瀬2-12-12",
    "lat":33.7827366,
    "lng":130.7222349
  },
  {
    "name":"フラット7",
    "kana":"フラット7",
    "zip":"820-0067",
    "address":"福岡県飯塚市川津431-2",
    "lat":33.6475923,
    "lng":130.6739415
  },
  {
    "name":"大峰貸家",
    "kana":"オオミネカシヤ",
    "zip":"827-0003",
    "address":"田川郡川崎町川崎95-47",
    "lat":33.5932661,
    "lng":130.8322924
  },
  {
    "name":"若菜テナント（テナント）",
    "kana":"ワカナテナント",
    "zip":"820-0082",
    "address":"飯塚市若菜210-7",
    "lat":33.6296619,
    "lng":130.6724523
  },
  {
    "name":"小正貸家",
    "kana":"オマサカシヤ",
    "zip":"820-0089",
    "address":"飯塚市小正813-13",
    "lat":33.6234754,
    "lng":130.6574072
  },
  {
    "name":"栄町戸建",
    "kana":"サカエマチコダテ",
    "zip":"825-0011",
    "address":"田川市栄町7-6",
    "lat":33.6388178,
    "lng":130.8095106
  },
  {
    "name":"中津原貸家（野相様）",
    "kana":"ナカツバラカシヤノアイサマ",
    "zip":"822-1405",
    "address":"田川郡香春町大字中津原1931-10",
    "lat":33.6552109,
    "lng":130.8288535
  },
  {
    "name":"bell ville Ⅰ（ベルビル）",
    "kana":"ベルビルワン",
    "zip":"822-1406",
    "address":"田川郡香春町大字香春1015-1",
    "lat":33.6623927,
    "lng":130.8318972
  },
  {
    "name":"モーリックス飯塚",
    "kana":"モーリックスイイヅカ",
    "zip":"820-0052",
    "address":"福岡県飯塚市相田253-3",
    "lat":33.6592319,
    "lng":130.6609655
  },
  {
    "name":"シャトーラツールⅠ",
    "kana":"シャトーラツールワン",
    "zip":"822-0001",
    "address":"福岡県直方市感田3144-2",
    "lat":33.768032,
    "lng":130.7175889
  },
  {
    "name":"シャトーラツールⅡ",
    "kana":"シャトーラツールツー",
    "zip":"822-0001",
    "address":"福岡県直方市感田3143-1",
    "lat":33.7681216,
    "lng":130.7174313
  },
  {
    "name":"阿恵ヒルズ（旧阿恵コーポ）",
    "kana":"アエヒルズ",
    "zip":"820-0704",
    "address":"福岡県飯塚市阿恵384-1",
    "lat":33.5684304,
    "lng":130.6459085
  },
  {
    "name":"阿恵ヒルズ（旧阿恵コーポ）　（テナント）",
    "kana":"アエヒルズテナント",
    "zip":"820-0704",
    "address":"福岡県飯塚市阿恵384-1",
    "lat":33.5684304,
    "lng":130.6459085
  },
  {
    "name":"OASIS柏の森Ⅱ（旧：松岡第2ビル）",
    "kana":"オアシスカヤノモリツー",
    "zip":"820-0011",
    "address":"飯塚市柏の森501-2",
    "lat":33.6386886,
    "lng":130.6984471
  },
  {
    "name":"ビレッジAKANE",
    "kana":"ビレッジカアカネ",
    "zip":"825-0001",
    "address":"田川市伊加利2211番地14",
    "lat":33.6316883,
    "lng":130.8221366
  },
  {
    "name":"オーク伊加利",
    "kana":"オークイカリ",
    "zip":"825-0001",
    "address":"田川市伊加利2211番地81",
    "lat":33.6314093,
    "lng":130.821984
  },
  {
    "name":"浅原ビル",
    "kana":"アサハラビル",
    "zip":"820-0040",
    "address":"飯塚市吉原町2-6",
    "lat":33.6410797,
    "lng":130.6851508
  },
  {
    "name":"フィオレンティーナ",
    "kana":"フィオレンティーナ",
    "zip":"802-0064",
    "address":"福岡県北九州市小倉北区片野４丁目１−８",
    "lat":33.8645394,
    "lng":130.8810329
  },
  {
    "name":"BRIS中井",
    "kana":"ブリスナカイ",
    "zip":"803-0836",
    "address":"福岡県北九州市小倉北区中井５丁目１５−４",
    "lat":33.8865089,
    "lng":130.8452459
  },
  {
    "name":"BRAVE BASE東徳前B棟",
    "kana":"ブレーブベースヒガシトクゼンビートウ",
    "zip":"820-0032",
    "address":"飯塚市東徳前15-16",
    "lat":33.6343954,
    "lng":130.6812155
  },
  {
    "name":"ウェルフォアシアン",
    "kana":"ウェルフォアシアン",
    "zip":"822-0001",
    "address":"直方市感田2684-1",
    "lat":33.7653755,
    "lng":130.7325093
  },
  {
    "name":"橋本アパート",
    "kana":"ハシモトアパート",
    "zip":"822-1403",
    "address":"田川郡香春町高田1200-3",
    "lat":33.6686042,
    "lng":130.8467107
  },
  {
    "name":"LAアパルトマン",
    "kana":"エルエーアパルトマン",
    "zip":"820-0003",
    "address":"飯塚市立岩１０７７−４９",
    "lat":33.6468077,
    "lng":130.7041906
  },
  {
    "name":"Ｔシャトー",
    "kana":"ティーシャトー",
    "zip":"827-0002",
    "address":"田川郡川崎町池尻909-4（S）、908-3（M）908-1（C）",
    "lat":33.6144854,
    "lng":130.8062154
  },
  {
    "name":"糸田町貸家（3134）",
    "kana":"イトダマチカシヤ3134",
    "zip":"822-1300",
    "address":"田川郡糸田町3134",
    "lat":33.6527454,
    "lng":130.7790436
  },
  {
    "name":"糸田町貸家（3134-1）",
    "kana":"イトダマチカシヤ3134-1",
    "zip":"822-1300",
    "address":"田川郡糸田町3134-1",
    "lat":33.6527454,
    "lng":130.7790436
  },
  {
    "name":"ヒルトップ蛍ヶ丘",
    "kana":"ヒルトップホタルガオカ",
    "zip":"825-0004",
    "address":"田川市夏吉1258-244",
    "lat":33.6573464,
    "lng":130.8231538
  },
  {
    "name":"久井アパート",
    "kana":"ヒサイアパート",
    "zip":"827-0003",
    "address":"田川郡川崎町大字川崎876-5",
    "lat":33.5974005,
    "lng":130.823106
  },
  {
    "name":"川津貸店舗",
    "kana":"カワズカシテンポ",
    "zip":"820-0067",
    "address":"飯塚市川津22-3",
    "lat":33.6565919,
    "lng":130.6831126
  },
  {
    "name":"レミエ潤野W",
    "kana":"レミエウルノダブリュー",
    "zip":"820-0021",
    "address":"飯塚市潤野446-1",
    "lat":33.6337598,
    "lng":130.6575262
  },
  {
    "name":"ニュー本町ビル",
    "kana":"ニューホンマチビル",
    "zip":"820-0042",
    "address":"飯塚市本町16-27",
    "lat":33.6401219,
    "lng":130.6837102
  },
  {
    "name":"ニュー本町ビル（テナント）",
    "kana":"ニューホンマチビルテナント",
    "zip":"820-0042",
    "address":"飯塚市本町16-27",
    "lat":33.6401219,
    "lng":130.6837102
  },
  {
    "name":"勝森マンション",
    "kana":"カツモリマンション",
    "zip":"820-0068",
    "address":"飯塚市片島1丁目5-57",
    "lat":33.6446861,
    "lng":130.681068
  },
  {
    "name":"キューブ・コート　カニガ坂",
    "kana":"キューブコートカニガザカ",
    "zip":"820-0089",
    "address":"飯塚市小正855-1",
    "lat":33.6229141,
    "lng":130.6547013
  },
  {
    "name":"安武アパート",
    "kana":"ヤスタケアパート",
    "zip":"820-0088",
    "address":"飯塚市弁分357-3",
    "lat":33.6221201,
    "lng":130.662148
  },
  {
    "name":"安武貸店舗",
    "kana":"ヤスタケカシテンポ",
    "zip":"820-0088",
    "address":"飯塚市弁分9-1",
    "lat":33.6215848,
    "lng":130.6707073
  },
  {
    "name":"レイクサイド椿",
    "kana":"レイクサイドツバキ",
    "zip":"820-0084",
    "address":"飯塚市椿516-5",
    "lat":33.6175403,
    "lng":130.65788
  },
  {
    "name":"サニーコート・エイデン",
    "kana":"サニーコートエイデン",
    "zip":"820-0088",
    "address":"飯塚市弁分11-1",
    "lat":33.6209587,
    "lng":130.6711263
  },
  {
    "name":"勝森マンション",
    "kana":"カツモリマンション",
    "zip":"820-0068",
    "address":"飯塚市片島1丁目5-57",
    "lat":33.6446861,
    "lng":130.681068
  },
  {
    "name":"石川月極駐車場",
    "kana":"イシカワツキギメチュウシャジョウ",
    "zip":"826-0022",
    "address":"田川市本町2-18",
    "lat":33.6309187,
    "lng":130.799367
  },
  {
    "name":"日の出駐車場",
    "kana":"ヒノデマチチュウシャジョウ",
    "zip":"825-0012",
    "address":"田川市日の出町3074-2 3078-1 3095-13",
    "lat":33.6431455,
    "lng":130.8124169
  },
  {
    "name":"日の出駐車場Ⅱ",
    "kana":"ヒノデマチチュウシャジョウツー",
    "zip":"825-0012",
    "address":"田川市日の出町2-9",
    "lat":33.6435374,
    "lng":130.8113188
  },
  {
    "name":"平成月極駐車場",
    "kana":"ヘイセイツキギメチュウシャジョウ",
    "zip":"825-0012",
    "address":"田川市日の出町2979番地17",
    "lat":33.6431455,
    "lng":130.8124169
  },
  {
    "name":"金田中村月極駐車場",
    "kana":"カナダナカムラツキギメチュウシャジョウ",
    "zip":"822-1201",
    "address":"田川郡福智町金田1104-2",
    "lat":33.6848212,
    "lng":130.7776305
  },
  {
    "name":"エクセルステージ第二駐車場",
    "kana":"エクセルステージダイニチュウシャジョウ",
    "zip":"820-0052",
    "address":"飯塚市相田75-76",
    "lat":33.6558352,
    "lng":130.6646376
  },
  {
    "name":"市役所北松岡駐車場",
    "kana":"シヤクショキタマツオカチュウシャジョウ",
    "zip":"820-0003",
    "address":"飯塚市大字立岩1451-7",
    "lat":33.648376,
    "lng":130.6943068
  },
  {
    "name":"市役所北松岡駐車場Ⅱ",
    "kana":"シヤクショキタマツオカチュウシャジョウⅡ",
    "zip":"820-0003",
    "address":"飯塚市新立岩1451-4",
    "lat":33.64720303,
    "lng":130.691955
  },
  {
    "name":"新町駐車場",
    "kana":"シンマチチュウシャジョウ",
    "zip":"825-0016",
    "address":"田川市新町3322-1",
    "lat":33.642915,
    "lng":130.8064064
  },
  {
    "name":"柏の森月極駐車場",
    "kana":"カヤノモリツキギメチュウシャジョウ",
    "zip":"820-0011",
    "address":"飯塚市柏の森539-10",
    "lat":33.6414925,
    "lng":130.697666
  },
  {
    "name":"谷口商事(株)月極駐車場",
    "kana":"タニグチショウジツキギメチュウシャジョウ",
    "zip":"826-0041",
    "address":"田川市弓削田1643-2",
    "lat":33.6293367,
    "lng":130.7765676
  },
  {
    "name":"谷口商事(株)月極駐車場No.2",
    "kana":"タニグチショウジツキギメチュウシャジョウナンバー2",
    "zip":"826-0041",
    "address":"田川市弓削田1492-2",
    "lat":33.6322696,
    "lng":130.7782277
  },
  {
    "name":"田川病院前月極駐車場",
    "kana":"タガワビョウインマエツキギメチュウシャジョウ",
    "zip":"827-0002",
    "address":"田川郡川崎町大字池尻字後藤寺谷607-8",
    "lat":33.6174253,
    "lng":130.8045082
  },
  {
    "name":"若菜駐車場",
    "kana":"ワカナチュウシャジョウ",
    "zip":"820-0082",
    "address":"飯塚市若菜141",
    "lat":33.6266549,
    "lng":130.6736711
  },
  {
    "name":"高雄駐車場",
    "kana":"タカオチュウシャジョウ",
    "zip":"820-0053",
    "address":"飯塚市伊岐須216-33",
    "lat":33.6491256,
    "lng":130.6648377
  },
  {
    "name":"柴田月極駐車場",
    "kana":"シバタツキギメチュウシャジョウ",
    "zip":"820-0002",
    "address":"飯塚市川島44-1",
    "lat":33.6545368,
    "lng":130.6932189
  },
  {
    "name":"金光駐車場",
    "kana":"カネミツチュウシャジョウ",
    "zip":"820-0043",
    "address":"飯塚市西町13-5",
    "lat":33.6417064,
    "lng":130.6767184
  },
  {
    "name":"はな月極駐車場",
    "kana":"ハナツキギメチュウシャジョウ",
    "zip":"820-0042",
    "address":"飯塚市本町16-23",
    "lat":33.6398,
    "lng":130.6836819
  },
  {
    "name":"新飯塚中駐車場",
    "kana":"シンイイヅカナカチュウシャジョウ",
    "zip":"820-0005",
    "address":"福岡県飯塚市新飯塚12-2",
    "lat":33.6447888,
    "lng":130.6922663
  },
  {
    "name":"堀池デンエン駐車場",
    "kana":"ホリイケデンエンチュウシャジョウ",
    "zip":"820-0070",
    "address":"飯塚市堀池179-4",
    "lat":33.6296851,
    "lng":130.6819039
  },
  {
    "name":"知古月極駐車場",
    "kana":"チコツキギメチュウシャジョウ",
    "zip":"822-0022",
    "address":"直方市知古2丁目225番地",
    "lat":33.757301,
    "lng":130.7240946
  },
  {
    "name":"知古月極駐車場No.2",
    "kana":"チコツキギメチュウシャジョウナンバー2",
    "zip":"822-0022",
    "address":"直方市知古2丁目217番地",
    "lat":33.757301,
    "lng":130.7798359
  },
  {
    "name":"上野ガレージ",
    "kana":"アガノガレージ",
    "zip":"822-1102",
    "address":"田川郡福智町上野2553番1",
    "lat":33.6826424,
    "lng":130.7798359
  },
  {
    "name":"壁屋駐車場",
    "kana":"カベヤチュウシャジョウ",
    "zip":"820-0012",
    "address":"飯塚市下三緒311-4",
    "lat":33.6349752,
    "lng":130.7039529
  },
  {
    "name":"末松駐車場",
    "kana":"スエマツチュウシャジョウ",
    "zip":"826-0033",
    "address":"田川市丸山町1633",
    "lat":33.6245971,
    "lng":130.80261
  },
  {
    "name":"エイデン月極駐車場",
    "kana":"エイデンツキギメチュウシャジョウ",
    "zip":"820-0088",
    "address":"飯塚市弁分12-1",
    "lat":33.6209587,
    "lng":130.6711263
  },
  {
    "name":"ファミール ",
    "kana":"ファミール",
    "zip":"825-0002",
    "address":"田川市大字伊田3416",
    "lat":33.6484599,
    "lng":130.8140907
  },
  {
    "name":"フレンズ ",
    "kana":"フレンズ",
    "zip":"825-0002",
    "address":"田川市大字伊田3418",
    "lat":33.6486214,
    "lng":130.8139347
  },
  {
    "name":"カーサまるみ3号棟",
    "kana":"カーサマルミ3ゴウトウ",
    "zip":"824-0216",
    "address":"京都郡みやこ町犀川谷口465",
    "lat":33.6595466,
    "lng":130.9343382
  },
  {
    "name":"カーサまるみ5号棟",
    "kana":"カーサマルミ5ゴウトウ",
    "zip":"824-0216",
    "address":"京都郡みやこ町犀川谷口465",
    "lat":33.6595466,
    "lng":130.9343382
  },
  {
    "name":"糒戸建(4戸)",
    "kana":"ホシイコダテ4コ",
    "zip":"825-0005",
    "address":"田川市大字糒814-1",
    "lat":33.6607886,
    "lng":130.7968934
  },
  {
    "name":"糸田町井ノ尻戸建(2戸)",
    "kana":"イトダマチイノシリコダテ",
    "zip":"822-1300",
    "address":"田川郡糸田町2305",
    "lat":33.6527454,
    "lng":130.7790436
  },
  {
    "name":"大熊戸建",
    "kana":"オオクマコダテ",
    "zip":"822-1300",
    "address":"田川郡糸田町大熊4108-6",
    "lat":33.6724821,
    "lng":130.7808648
  },
  {
    "name":"弓削田貸家",
    "kana":"ユゲタコダテ",
    "zip":"822-0041",
    "address":"田川市大字弓削田2010-4",
    "lat":33.6280658,
    "lng":130.7776993
  },
  {
    "name":"一本松貸家",
    "kana":"イッポンマツカシヤ",
    "zip":"822-1405",
    "address":"田川郡香春町大字中津原1257-7",
    "lat":33.6562365,
    "lng":130.8366699
  },
  {
    "name":"棚木貸家",
    "kana":"タナキカシヤ",
    "zip":"825-0005",
    "address":"田川市大字糒293-2",
    "lat":33.6596906,
    "lng":130.811693
  },
  {
    "name":"グリーンモール OASIS田川",
    "kana":"グリーンモールオアシスタガワ",
    "zip":"822-1406",
    "address":"田川郡香春町大字香春1081",
    "lat":33.6792623,
    "lng":130.8424598
  },
  {
    "name":"田川バイパス事業用地②",
    "kana":"タガワバイパスジギョウヨウチ2",
    "zip":"822-1406",
    "address":"田川郡香春町大字香春1106-1",
    "lat":33.6792623,
    "lng":130.8424598
  },
  {
    "name":"直方バイパス事業用地",
    "kana":"ノウガタバイパスジギョウヨウチ",
    "zip":"825-0005",
    "address":"田川市大字糒65",
    "lat":33.6607886,
    "lng":130.7968934
  },
  {
    "name":"松原テナント(ろくの家松原店)",
    "kana":"マツバラテナント",
    "zip":"825-0002",
    "address":"田川市大字伊田4870-5",
    "lat":33.6487174,
    "lng":130.8268017
  },
  {
    "name":"チェック本社店舗事務所（テナント）※定借",
    "kana":"チェックホンシャテンポジムショ",
    "zip":"825-0002",
    "address":"田川市大字伊田3428",
    "lat":33.6496861,
    "lng":130.8119622
  },
  {
    "name":"コーポＺＯＲＡ",
    "kana":"コーポゾラ",
    "zip":"826-0033",
    "address":"田川市丸山町10-7",
    "lat":33.6257227,
    "lng":130.8023925
  },
  {
    "name":"川崎貸家",
    "kana":"カワサキカシヤ",
    "zip":"827-0002",
    "address":"田川郡川崎町大字池尻1477-14-2",
    "lat":33.6173554,
    "lng":130.8052794
  },
  {
    "name":"APAHOME新飯塚北",
    "kana":"アパホームシンイイヅカキタ",
    "zip":"820-0003",
    "address":"飯塚市立岩1625-4",
    "lat":33.6510879,
    "lng":130.6889837
  },
  {
    "name":"OASIS片島",
    "kana":"オアシスカタシマ",
    "zip":"820-0068",
    "address":"飯塚市片島2丁目1-17",
    "lat":33.6446904,
    "lng":130.6851068
  },
  {
    "name":"OASIS柏の森",
    "kana":"オアシスカヤノモリ",
    "zip":"820-0011",
    "address":"飯塚市柏の森477-1",
    "lat":33.6378107,
    "lng":130.6995565
  },
  {
    "name":"Nパラッツオ",
    "kana":"エヌパラッツォ",
    "zip":"820-0207",
    "address":"嘉麻市口春664-6",
    "lat":33.6017164,
    "lng":130.7113537
  },
  {
    "name":"松隈貸家",
    "kana":"マツクマカシヤ",
    "zip":"820-0011",
    "address":"飯塚市柏の森476-1",
    "lat":33.6376007,
    "lng":130.699978
  },
  {
    "name":"東町戸建",
    "kana":"ヒガシマチコダテ",
    "zip":"826-0025",
    "address":"田川市大字伊田3857-9",
    "lat":33.6516276,
    "lng":130.8230392
  },
  {
    "name":"シャーメゾン弓削田A棟・B棟・C棟",
    "kana":"シャーメゾンユゲタエートウ・ビートウ・シートウ",
    "zip":"822-0041",
    "address":"田川市大字弓削田 ※番地は棟で違う",
    "lat":33.6328525,
    "lng":130.7715966
  },
  {
    "name":"下伊田戸建",
    "kana":"シモイタコダテ",
    "zip":"825-0002",
    "address":"田川市大字伊田4571-1",
    "lat":33.6493114,
    "lng":130.8124254
  },
  {
    "name":"OASIS伊方",
    "kana":"オアシスイカタ",
    "zip":"822-1201",
    "address":"田川郡福智町伊方4115-2",
    "lat":33.6880887,
    "lng":130.7978839
  },
  {
    "name":"上伊田貸家1374-8",
    "kana":"カミイタカシヤ1374-8",
    "zip":"825-0002",
    "address":"田川市大字伊田1374-8",
    "lat":33.6471084,
    "lng":130.8282408
  },
  {
    "name":"桂川町瀬戸戸建228-6",
    "kana":"ケイセンセトコダテ228-6",
    "zip":"820-0604",
    "address":"嘉穂郡桂川町瀬戸228-6",
    "lat":33.5984246,
    "lng":130.6721331
  },
  {
    "name":"OASIS県立大前Ⅱ",
    "kana":"オアシスケンリツダイマエツー",
    "zip":"825-0002",
    "address":"田川市大字伊田3875-2",
    "lat":33.6507867,
    "lng":130.8205419
  },
  {
    "name":"OASIS潤野Ⅰ",
    "kana":"オアシスウルノワン",
    "zip":"820-0021",
    "address":"飯塚市潤野926番地1",
    "lat":33.6368173,
    "lng":130.6616518
  },
  {
    "name":"OASIS潤野Ⅱ",
    "kana":"オアシスウルノツー",
    "zip":"820-0021",
    "address":"飯塚市潤野926番地1-2",
    "lat":33.6369629,
    "lng":130.6617346
  },
  {
    "name":"APAHOME飯塚Ⅰ（旧：ＦＬＡＴ1仲江）",
    "kana":"アパホームイイヅカワン",
    "zip":"820-0052",
    "address":"飯塚市相田31-2",
    "lat":33.6589922,
    "lng":130.6652767
  },
  {
    "name":"APAHOME飯塚Ⅱ（旧：ＦＬＡＴ８仲江）",
    "kana":"アパホームイイヅカツー",
    "zip":"820-0052",
    "address":"飯塚市相田32-1",
    "lat":33.6589783,
    "lng":130.6653176
  },
  {
    "name":"ひこさんビル",
    "kana":"ヒコサンビル",
    "zip":"824-0602",
    "address":"田川郡添田町大字添田1267-1",
    "lat":33.5663402,
    "lng":130.8569688
  },
  {
    "name":"椿テナント（セブンイレブン・美容室）",
    "kana":"ツバキテナント",
    "zip":"820-0084",
    "address":"飯塚市椿196-1-1、196-1-2",
    "lat":33.6191755,
    "lng":130.6629436
  },
  {
    "name":"立岩貸家　",
    "kana":"タテイワカシヤ",
    "zip":"820-0003",
    "address":"飯塚市立岩1141-5　※各枝番要確認",
    "lat":33.6463649,
    "lng":130.6977439
  },
  {
    "name":"池尻戸建（20-1）",
    "kana":"イケジリコダテ20-1",
    "zip":"826-0002",
    "address":"田川郡川崎町大字田原378-12",
    "lat":33.6088564,
    "lng":130.8138996
  }
]